NO.,시설구분,단말번호,관측소코드,위도,경도,고도,주소,설치층수,건물전체층수,제조사,연결상태,축보정,설치시점,수신시간,등록순번,시설구분세부,H3 Cell,Same_H3_Count,H3_Category,센서 품질,Sensor_Replacement_Status,통신품질기준,Communication_Quality_Status,Image_Link_1,Image_Link_2
1,SKM,01223132184,SIH0A,37.3456,126.749,7.71,경기 시흥시 정왕시장길 52,1,3,엔티모아,disc.,45,20년5월,0,3018,대리점,-,,,,,-,,,
2,FSM,01227500108,HOCB8,37.6115,127.7704,161.56,강원 홍천군 남면 시동로 46,2,3,우리넷,disc.,45,21년8월,2024.05.06 12:15:34,6747,소방청,-,,,,,-,,,
3,SKM,01227500358,PKJ07,35.2426,129.215,16.61,부산 기장군 기장읍 차성남로51번길 15,1,1,우리넷,disc.,45,20년5월,2024.05.13 11:45:32,2906,대리점,-,,,,,-,,,
4,SKM,01227500385,PKJ08,35.2452,129.2155,11.85,부산 기장군 기장읍 읍내로 101-1,1,1,우리넷,disc.,45,20년5월,0,2953,대리점,-,,,,,-,,,
5,KSM,01227500405,EURBX,35.3227,128.2883,13,경남 의령군 의령읍 의합대로 44-54,0,0,우리넷,normal,0,24년6월,2024.09.30 08:57:58,7800,기상청관측소,8530c027fffffff,13,양호,10,교체불필요,-,,,
6,SKM,01227500429,DDK0A,35.8626,128.4598,46.98,대구 달성군 다사읍 달구벌대로 805-1,5,3,우리넷,normal,0,20년1월,2024.09.30 08:57:58,878,SKT1,8530c567fffffff,17,양호,,,-,,,
7,FSM,01227500496,TAB0M,37.104,129.0406,616.94,강원 태백시 동태백로 289-48,2,2,우리넷,normal,0,21년8월,2024.09.30 08:57:58,7246,소방청,8530e853fffffff,16,양호,9,교체불필요,-,,,
8,SKM,01227500595,CHS01,36.1666,128.9801,1050.29,경북 청송군 현서면 무계리 산 21-14,1,1,우리넷,normal,0,20년1월,2024.09.30 08:57:58,312,SKT1,8530ea57fffffff,1,부족,10,교체불필요,-,,,
9,FSM,01227500636,YON12,37.245,127.1059,66.64,경기 용인시 기흥구 한보라1로 128,1,2,우리넷,normal,45,21년8월,2024.09.30 08:57:58,6317,소방청,8530e15bfffffff,19,양호,10,교체불필요,-,,,
10,FSM,01227500699,KYU1M,35.8441,129.2284,53.9,경북 경주시 알천남로 276,2,2,우리넷,normal,45,21년8월,2024.09.30 08:57:58,7048,소방청,8530c1b7fffffff,13,양호,10,교체불필요,-,,,
11,SKM,01227500700,YOC01,35.9,128.8676,92.64,경북 영천시 금호읍 남성리 399,1,1,우리넷,normal,0,20년1월,2024.09.30 08:57:58,246,SKT1,8530ea4bfffffff,13,양호,9,교체불필요,-,,,
12,SKM,01227500747,PDR0K,35.2054,129.0795,11.81,부산 동래구 명륜로129번다길 3,1,2,우리넷,disc.,0,20년5월,2022.01.04 08:46:12,3124,대리점,-,,,,,-,,,
13,SKM,01227500783,DDH0N,35.877,128.6292,44.75,대구 동구 동부로 154,1,4,우리넷,disc.,45,20년5월,2020.06.13 14:23:13,2837,대리점,-,,,,,-,,,
14,CPM,01227500814,YAYBX,37.9445,128.7861,6.78,강원 양양군 현남면 매바위길 125-1,1,1,엔티모아,normal,0,21년8월,2024.09.30 08:57:58,5177,해양경찰청,8530ec2bfffffff,7,양호,10,교체불필요,-,,https://www.dropbox.com/scl/fi/qxv6bsvew6y8fonvse3k3/01227500814_2.jpg?rlkey=4ofjnxun5pwyrghsyo4iikdqo&dl=0,https://www.dropbox.com/scl/fi/iqb8yeiln0z5pnx3flku1/01227500814_1.jpg?rlkey=izjmd6bjxmxt1l0nw7hxw3c7k&dl=0
15,POM,01227500912,SUS0E,36.7533,126.426,20,충남 서산시 인지면 무학로 1683,1,2,우리넷,normal,0,21년8월,2024.09.30 08:57:59,4610,우정사업본부,8530e2a3fffffff,3,부족,,,2,통품 불안정,https://www.dropbox.com/scl/fi/d9j9g6tzjvwsyb6o6u4cv/01227500912_1.jpg?rlkey=wu9jb8qzc41l7ob180etq3f0j&dl=0,https://www.dropbox.com/scl/fi/dtg4htepxep39e57q8s5z/01227500912_2.jpg?rlkey=vo6o9yad709uu63go7vwwlii2&dl=0
16,FSM,01227501095,WAD0L,34.4332,127.0625,8.55,전남 완도군 금당면 금당해변로941번길 39,1,1,엔티모아,normal,0,21년8월,2024.09.30 08:57:58,6813,소방청,8530c21bfffffff,5,부족,10,교체불필요,-,,,
17,FSM,01227501130,CHA2J,35.2079,128.6986,33.4,경남 창원시 성산구 대정로 39,1,3,우리넷,normal,45,21년8월,2024.09.30 08:57:58,5289,소방청,8530c14ffffffff,20,양호,8,교체불필요,-,,,
18,SKM,01227501238,SDD07,37.5868,127.0379,16.35,서울 동대문구 고산자로 529,1,4,우리넷,normal,0,20년1월,2024.09.30 08:57:58,1131,SKT2,8530e1c3fffffff,112,초과밀,9,교체불필요,-,,,
19,POM,01227501282,PKS0L,35.2178,128.958,0,부산 강서구 대저로49번길 22,1,6,엔티모아,normal,45,21년8월,2024.09.30 08:57:58,5070,우정사업본부,8530c163fffffff,97,초과밀,9,교체불필요,-,,,
20,SKM,01227509548,EWA05,37.3272,126.9593,61.57,경기 의왕시 괴말길 66-8,3,3,우리넷,normal,0,20년1월,2024.09.30 08:57:58,898,SKT1,8530e023fffffff,31,과밀,10,교체불필요,-,,,
21,SKM,01227509914,DJG01,35.8559,128.5997,49.84,대구 중구 명덕로55길 1,4,6,우리넷,disc.,0,20년1월,2024.01.22 13:38:23,270,SKT1,-,,,,,-,,,
22,SKM,01227509952,SKW0Q,37.4922,126.9264,21.49,서울 관악구 보라매로5길 1,1,16,우리넷,normal,0,20년4월,2024.09.30 08:57:58,2430,SKT3,-,,,,,-,,,
23,SKM,01227579147,PGJ0A,35.2582,129.0911,44.26,부산 금정구 중앙대로 1947,1,4,우리넷,normal,45,20년5월,2024.09.30 08:57:58,2956,대리점,8530c163fffffff,97,초과밀,10,교체불필요,-,,,
24,SKM,01227579391,EUI02,36.4318,128.6686,142.33,경북 의성군 단촌면 동내개골길 129,1,1,우리넷,normal,0,20년1월,2024.09.30 08:57:58,501,SKT1,8530ead3fffffff,3,부족,,,-,,,
25,SKM,01227579483,DDK02,35.8794,128.3991,23.08,대구 달성군 하빈면 하목정길 32,2,3,우리넷,normal,0,20년1월,2024.09.30 08:57:58,229,SKT1,8530c567fffffff,17,양호,10,교체불필요,-,,,
26,SKM,01227579562,DJG02,35.8704,128.5915,41.25,대구 중구 국채보상로 554-1,8,8,우리넷,normal,45,20년1월,2024.09.30 08:57:58,271,SKT1,8530c193fffffff,81,초과밀,9,교체불필요,-,,,
27,FSM,01227579575,YDK0H,36.5424,129.3956,8.8,경북 영덕군 영해면 창수영해로 481,1,3,우리넷,normal,45,21년8월,2024.09.30 08:57:58,6404,소방청,8530ea33fffffff,6,양호,10,교체불필요,-,,,
28,FSM,01227586516,CHA2K,35.3528,128.611,5.76,경남 창원시 의창구 북면 천주로1150번길 15-22,1,3,우리넷,disc.,45,21년8월,0,5291,소방청,-,,,,,-,,,
29,SKM,01227586650,GGG04,35.2188,126.8424,29.95,광주 광산구 첨단중앙로 152,6,8,우리넷,normal,0,20년1월,2024.09.30 08:57:58,385,SKT1,8530c6affffffff,54,초과밀,10,교체불필요,-,,,
30,SKM,01227586971,HWS02,34.9465,126.976,64.9,전남 화순군 춘양면 우봉리 430,1,1,우리넷,normal,0,20년1월,2024.09.30 08:57:58,1322,SKT2,8530c62ffffffff,2,부족,9,교체불필요,-,,,
31,SKM,01227587014,WAS0H,35.3153,129.0044,3.72,경남 양산시 물금읍 새실로 159,1,4,우리넷,disc.,0,20년5월,2022.08.05 19:36:23,3063,대리점,-,,,,,-,,,
32,SKM,01227587024,DPG08,35.9026,128.6137,41.87,대구 북구 대불로 23,2,3,우리넷,normal,0,20년1월,2024.09.30 08:57:58,1881,SKT2,8530c193fffffff,81,초과밀,5,교체검토,-,,,
33,SKM,01227587025,DJG05,35.8702,128.6039,39.99,대구 중구 동덕로 173,8,8,우리넷,normal,0,20년1월,2024.09.30 08:57:58,274,SKT1,8530c193fffffff,81,초과밀,10,교체불필요,-,,,
34,SKM,01227587028,MOK03,34.8013,126.4287,7.81,전남 목포시 하당남부로51번길 19,4,6,우리넷,normal,0,20년1월,2024.09.30 08:57:58,963,SKT1,8530c647fffffff,24,과밀,7,교체불필요,-,,,
35,SKM,01227587031,YUS04,34.7347,127.7255,2.95,전남 여수시 대교로 42-1,1,2,우리넷,normal,45,20년1월,2024.09.30 08:57:58,405,SKT2,8530c2a7fffffff,29,과밀,10,교체불필요,-,,,
36,SKM,01227587041,PJG07,35.1028,129.0277,19.2,부산 중구 대청로 72,1,3,우리넷,disc.,0,20년5월,2023.03.14 09:07:58,3123,대리점,-,,,,,-,,,
37,SKM,01227587062,KYU0E,35.7115,129.3193,75.78,경북 경주시 외동읍 순금2길 11,1,2,우리넷,normal,0,20년1월,2024.09.30 08:57:58,1571,SKT1,8530c1affffffff,6,양호,8,교체불필요,-,,,
38,SKM,01227587089,PDR09,35.1963,129.0614,17.26,부산 동래구 사직북로 4,1,1,우리넷,normal,45,20년5월,2024.09.30 08:57:58,2696,대리점,8530c163fffffff,97,초과밀,7,교체불필요,-,,,
39,SKM,01227587093,BON03,36.9376,128.9135,325.23,경북 봉화군 춘양면 의양로 46,2,2,우리넷,normal,0,20년1월,2024.09.30 08:57:58,371,SKT1,8530ee2ffffffff,3,부족,5,교체검토,-,,,
40,SKM,01227587095,MOO01,36.5898,128.1949,84.35,경북 문경시 중앙로 42,1,2,우리넷,normal,45,20년1월,2024.09.30 08:57:58,1623,SKT1,8530ee4bfffffff,9,양호,3,교체필요,-,,,
41,SKM,01227587103,KYU08,35.7508,129.2011,59.53,경북 경주시 내남면 이조리 1008-142,1,1,우리넷,normal,0,20년1월,2024.09.30 08:57:58,343,SKT1,8530c1a3fffffff,3,부족,9,교체불필요,-,,,
42,SKM,01227587106,YOC02,36.0025,129.0759,124.4,경북 영천시 고경면 호국로 1343,2,2,우리넷,normal,0,20년1월,2024.09.30 08:57:58,249,SKT1,8530ea4ffffffff,2,부족,9,교체불필요,2,통품 불안정,,
43,SKM,01227587114,KYS03,35.8149,128.7741,103.38,경북 경산시 매봉재길 26-4,1,1,우리넷,normal,0,20년1월,2024.09.30 08:57:58,294,SKT1,8530c183fffffff,24,과밀,9,교체불필요,-,,,
44,SKM,01227587137,YEC03,36.6567,128.4504,92.68,경북 예천군 예천읍 군청길 5,2,2,우리넷,normal,0,20년1월,2024.09.30 08:57:58,1588,SKT2,8530ee7bfffffff,3,부족,10,교체불필요,-,,,
45,SKM,01227587138,JIJ0H,35.1944,128.0827,28.13,경남 진주시 촉석로186번길 9,1,2,우리넷,normal,45,20년5월,2024.09.30 08:57:58,2970,대리점,8530c02bfffffff,31,과밀,10,교체불필요,-,,,
46,SKM,01227587154,CHI02,35.9768,128.5555,62.39,경북 칠곡군 동명면 구덕리 734-6,1,1,우리넷,normal,0,20년1월,2024.09.30 08:57:58,222,SKT1,8530c52bfffffff,11,양호,,,-,,,
47,SKM,01227587156,DDH08,35.8735,128.7121,52.92,대구 동구 반야월북로 131-4,1,3,우리넷,normal,45,20년1월,2024.09.30 08:57:58,556,SKT1,8530c197fffffff,10,양호,10,교체불필요,-,,,
48,SKM,01227587159,DPG06,35.9026,128.6137,41.87,대구 북구 대불로 23,3,3,우리넷,normal,45,20년1월,2024.09.30 08:57:58,522,SKT1,8530c193fffffff,81,초과밀,10,교체불필요,-,,,
49,SKM,01227587162,PSY09,35.1618,129.1142,15.98,부산 수영구 수영로 630,1,40,우리넷,disc.,0,20년5월,2020.12.14 16:12:06,3096,대리점,-,,,,,-,,,
50,SKM,01227587164,PJI0N,35.1543,129.0604,17.3,부산 부산진구 중앙대로692번길 22,1,5,우리넷,disc.,0,20년5월,2022.01.03 18:10:10,2701,대리점,-,,,,,-,,,
51,SKM,01227587171,KIH0J,35.2027,128.8078,18.78,경남 김해시 능동로155번길 5,1,5,우리넷,normal,45,20년5월,2024.09.30 08:57:58,3141,대리점,8530c17bfffffff,33,과밀,10,교체불필요,-,,,
52,SKM,01227587187,CHA14,35.2546,128.6128,28.93,경남 창원시 의창구 팔용로 428,1,6,우리넷,disc.,45,20년5월,2022.02.08 18:26:47,2975,대리점,-,,,,,-,,,
53,SKM,01227587190,YOC03,35.9806,128.9786,82.42,경북 영천시 고경면 호국로 381-5,2,2,우리넷,normal,0,20년1월,2024.09.30 08:57:58,252,SKT1,8530ea4bfffffff,13,양호,10,교체불필요,-,,,
54,SKM,01227587194,GDG01,35.1502,126.916,52.74,광주 동구 금남로 211,10,10,우리넷,normal,0,20년1월,2024.09.30 08:57:58,1172,SKT1,8530c637fffffff,17,양호,10,교체불필요,-,,,
55,SKM,01227587208,PJI0S,35.1552,129.0605,16.19,부산 부산진구 서전로10번길 61,1,8,우리넷,disc.,45,20년5월,2022.03.10 12:09:15,2731,대리점,-,,,,,-,,,
56,FSM,01227587211,JECC0,37.1606,128.2129,305.71,충북 제천시 신죽하로 164,2,3,우리넷,normal,45,21년8월,2024.09.30 08:57:59,7128,소방청,8530ee13fffffff,19,양호,10,교체불필요,-,,,
57,POM,01227587212,GOY0R,37.6942,126.7682,24.17,경기 고양시 일산서구 현중로36번길 7,1,2,엔티모아,normal,0,21년8월,2024.09.30 08:57:58,4650,우정사업본부,8530e0b7fffffff,10,양호,10,교체불필요,-,,,
58,SKM,01227587214,GOR02,35.8276,128.4543,25.14,경북 고령군 다산면 평리리 138,1,2,우리넷,normal,0,20년1월,2024.09.30 08:57:58,883,SKT1,8530c567fffffff,17,양호,6,관찰필요,-,,,
59,SKM,01227587231,GUM02,36.2145,128.3338,43.12,경북 구미시 고아읍 관심5길 25,1,2,우리넷,normal,0,20년1월,2024.09.30 08:57:58,241,SKT1,8530c5abfffffff,8,양호,6,관찰필요,-,,,
60,SKM,01227587232,SUJ02,35.9346,128.3058,39.29,경북 성주군 성주읍 주산로 205,1,1,우리넷,normal,0,20년1월,2024.09.30 08:57:58,464,SKT2,8530c577fffffff,5,부족,5,교체검토,-,,,
61,FSM,01227587233,YODBX,36.2353,127.9038,160.78,충북 영동군 황간면 황간로 132,1,2,우리넷,normal,45,21년8월,2024.09.30 08:57:58,5292,소방청,8530c58bfffffff,3,부족,3,교체필요,-,,,
62,FSM,01227587236,EUI0K,36.4551,128.3508,65.51,경북 의성군 다인면 서부로 2846,1,2,우리넷,normal,45,21년8월,2024.09.30 08:57:58,6417,소방청,8530c5b7fffffff,4,부족,10,교체불필요,-,,,
63,SKM,01227587243,DDK07,35.6948,128.4448,23.36,대구 달성군 현풍읍 비슬로130길 102,1,2,우리넷,normal,0,20년1월,2024.09.30 08:57:58,480,SKT2,8530c1d7fffffff,6,양호,9,교체불필요,-,,,
64,FSM,01227587244,HADB1,34.9779,127.7955,3.67,경남 하동군 금성면 금성로 15,1,4,우리넷,normal,45,21년8월,2024.09.30 08:57:58,5293,소방청,8530c063fffffff,9,양호,3,교체필요,-,,,
65,SKM,01227587248,WAS0F,35.3293,129.0137,3.71,경남 양산시 물금읍 삽량로 40,1,8,우리넷,disc.,0,20년5월,2022.03.29 16:16:19,2881,대리점,-,,,,,-,,,
66,SKM,01227587249,YOC05,36.0121,128.7073,897.01,경북 영천시 신녕면 치산리 산 141-5,1,1,우리넷,normal,0,20년1월,2024.09.30 08:57:58,382,SKT1,8530c52ffffffff,5,부족,10,교체불필요,2,통품 불안정,,
67,SKM,01227587255,BOS02,34.7719,127.0747,159.76,전남 보성군 보성읍 주봉길 19,1,1,우리넷,disc.,0,20년1월,2022.10.13 15:19:08,683,SKT2,-,,,,,-,,,
68,FSM,01227587256,BOSBW,34.7802,127.2014,11.38,전남 보성군 득량면 예당길 186,1,1,우리넷,normal,45,21년8월,2024.09.30 08:57:58,6946,소방청,8530c287fffffff,7,양호,8,교체불필요,-,,,
69,FSM,01227587260,ASA0Z,36.786,127.0258,14.57,충남 아산시 모종로 77,2,3,우리넷,normal,45,21년8월,2024.09.30 08:57:58,6377,소방청,8530e3c7fffffff,11,양호,10,교체불필요,-,,,
70,SKM,01227587262,PDR0J,35.1963,129.1033,14.89,부산 동래구 충렬대로 412,1,7,우리넷,disc.,45,20년5월,2020.09.25 11:53:07,2740,대리점,-,,,,,-,,,
71,SKM,01227587281,PPG0B,35.2347,129.0105,5.95,부산 북구 화명신도시로 117,1,8,우리넷,disc.,45,20년5월,2024.03.30 17:19:43,3134,대리점,-,,,,,-,,,
72,SKM,01227587282,DPG07,35.9315,128.5489,34.02,대구 북구 구암로16길 12,2,3,우리넷,normal,0,20년1월,2024.09.30 08:57:58,1069,SKT1,8530c193fffffff,81,초과밀,9,교체불필요,-,,,
73,SKM,01227587284,KIH0K,35.2373,128.8668,4.82,경남 김해시 내외중앙로 81,1,9,우리넷,disc.,45,20년5월,0,3146,대리점,-,,,,,-,,,
74,SKM,01227587290,DSG03,35.8798,128.5459,29.29,대구 서구 북비산로 113-10,1,1,우리넷,normal,0,20년1월,2024.09.30 08:57:58,1062,SKT1,8530c193fffffff,81,초과밀,8,교체불필요,-,,,
75,SKM,01227587293,GUM07,36.139,128.4439,35.53,경북 구미시 산동읍 산호대로43길 8-19,3,3,우리넷,normal,45,20년1월,2024.09.30 08:57:58,453,SKT2,8530c533fffffff,9,양호,9,교체불필요,-,,,
76,SKM,01227587294,KIH0L,35.2373,128.8668,4.82,경남 김해시 내외중앙로 81,1,9,우리넷,normal,45,20년5월,2024.09.30 08:57:58,3147,대리점,8530c17bfffffff,33,과밀,10,교체불필요,-,,,
77,FSM,01227587295,KYU0Z,35.9978,129.2522,10.83,경북 경주시 강동면 양동마을길 65-48,1,1,우리넷,normal,45,21년8월,2024.09.30 08:57:58,5294,소방청,8530ea7bfffffff,7,양호,10,교체불필요,-,,,
78,SKM,01227587310,SAJ04,36.4024,128.1495,70.5,경북 상주시 경상대로 2860,1,2,우리넷,normal,45,20년1월,2024.09.30 08:57:58,1621,SKT1,8530c587fffffff,5,부족,9,교체불필요,-,,,
79,SKM,01227587318,DDS09,35.8423,128.5001,22.68,대구 달서구 성서서로 194,4,5,우리넷,normal,45,20년1월,2024.09.30 08:57:58,874,SKT1,8530c567fffffff,17,양호,,,-,,,
80,SKM,01227587320,DDS02,35.8327,128.5373,48.24,대구 달서구 학산로 97,3,6,우리넷,normal,0,20년1월,2024.09.30 08:57:58,268,SKT1,8530c193fffffff,81,초과밀,5,교체검토,-,,,
81,SKM,01227587321,DSS0A,35.8634,128.6183,44.32,대구 수성구 들안로 360,1,4,우리넷,normal,45,20년5월,2024.09.30 08:57:58,2848,대리점,8530c193fffffff,81,초과밀,9,교체불필요,-,,,
82,SKM,01227587326,JUN1D,37.4665,128.7117,505.92,강원 정선군 여량면 여량리 산 163-1,1,1,우리넷,normal,0,22년 하반기 이후,2024.09.30 08:57:59,7391,SKT1,8530e8d3fffffff,2,부족,,,-,,,
83,SKM,01227587328,DDH01,35.9135,128.6414,34.72,대구 동구 팔공로 166,4,5,우리넷,disc.,0,20년1월,2022.07.20 12:14:19,227,SKT1,-,,,,,-,,,
84,SKM,01227587330,BON01,36.8825,128.7495,325.9,경북 봉화군 봉화읍 거촌리 665,1,1,우리넷,normal,0,20년1월,2024.09.30 08:57:58,265,SKT1,8530ee2bfffffff,5,부족,10,교체불필요,-,,,
85,POM,01227587340,JUE0B,35.5671,126.852,41.21,전북 정읍시 중앙로 119,1,3,우리넷,normal,0,21년8월,2024.09.30 08:57:58,5116,우정사업본부,8530c47bfffffff,10,양호,,,-,,,
86,SKM,01227587341,CHI04,35.9871,128.4058,37.13,경북 칠곡군 왜관읍 평장2길 25,2,2,우리넷,normal,45,20년1월,2024.09.30 08:57:58,332,SKT2,8530c52bfffffff,11,양호,7,교체불필요,2,통품 불안정,,
87,SKM,01227587347,CHD03,35.6477,128.7404,76.54,경북 청도군 청도읍 냉정길 23,1,2,우리넷,normal,0,20년1월,2024.09.30 08:57:58,530,SKT1,8530c113fffffff,8,양호,8,교체불필요,-,,,
88,FSM,01227587348,DAN0E,37.0783,128.4878,185.09,충북 단양군 영춘면 온달평강3로 9-1,2,2,우리넷,normal,45,21년8월,2024.09.30 08:57:58,6985,소방청,8530ee07fffffff,2,부족,10,교체불필요,-,,,
89,SKM,01227587349,CHS02,36.5517,128.9968,379.78,경북 청송군 진보면 추현리 산 81-1,1,1,우리넷,normal,0,20년1월,2024.09.30 08:57:58,593,SKT1,8530ea8bfffffff,2,부족,6,관찰필요,-,,,
90,SKM,01227587354,GSG05,35.1219,126.8826,80.38,광주 서구 풍암순환로109번길 16,2,4,우리넷,normal,0,20년1월,2024.09.30 08:57:59,1161,SKT1,8530c633fffffff,30,과밀,9,교체불필요,-,,,
91,SKM,01227587357,CHD02,35.6353,128.9014,529.4,경북 청도군 매전면 오남길 365-141,1,1,우리넷,disc.,0,20년1월,2022.12.16 11:33:46,295,SKT1,-,,,,,-,,,
92,SKM,01227587358,PSY07,35.1578,129.1134,19.79,부산 수영구 수영로 584,1,4,우리넷,disc.,45,20년5월,2021.07.17 11:35:41,2691,대리점,-,,,,,-,,,
93,SKM,01227587360,GUM0A,36.1206,128.3528,34.93,경북 구미시 구미중앙로 294,3,3,우리넷,disc.,45,20년1월,2024.08.08 17:43:24,1147,SKT1,-,,,,,-,,,
94,SKM,01227587362,DDS03,35.8139,128.5248,36.5,대구 달서구 월배로 92,8,8,우리넷,normal,45,20년1월,2024.09.30 08:57:58,269,SKT1,8530c19bfffffff,10,양호,2,교체시급,-,,,
95,SKM,01227587363,GUM0D,36.1618,128.461,48.37,경북 구미시 산동읍 임천인덕로 300-1,1,1,우리넷,normal,0,20년1월,2024.09.30 08:57:58,1968,SKT1,8530c533fffffff,9,양호,7,교체불필요,2,통품 불안정,,
96,SKM,01227587365,KYS0E,35.7922,128.8764,79.66,경북 경산시 용성면 원효로 1438,1,1,우리넷,normal,0,20년1월,2024.09.30 08:57:58,1708,SKT1,8530c187fffffff,5,부족,8,교체불필요,-,,,
97,SKM,01227587367,PKJ09,35.2447,129.2166,10.49,부산 기장군 기장읍 차성동로 77-1,1,3,우리넷,normal,45,20년5월,2024.09.30 08:57:58,3017,대리점,8530c167fffffff,18,양호,10,교체불필요,-,,,
98,SKM,01227587369,ULJ09,36.9264,129.2618,466.76,경북 울진군 금강송면 왕피길 51,1,1,우리넷,normal,0,20년1월,2024.09.30 08:57:58,326,SKT1,8530e84ffffffff,1,부족,9,교체불필요,-,,,
99,SKM,01227587372,PDG08,35.1292,129.0475,9.82,부산 동구 중앙대로371번길 21,1,3,우리넷,disc.,45,20년5월,2022.12.09 20:29:26,2692,대리점,-,,,,,-,,,
100,SKM,01227587374,PSG05,35.113,129.0165,43.18,부산 서구 구덕로328번길 4,1,4,우리넷,normal,45,20년5월,2024.09.30 08:57:58,2680,대리점,8530c16bfffffff,77,초과밀,7,교체불필요,-,,,
101,POM,01227587376,EUM0G,36.9326,127.6894,149.4,충북 음성군 음성읍 중앙로 94,1,3,엔티모아,normal,0,21년8월,2024.09.30 08:57:59,4716,우정사업본부,8530e3affffffff,6,양호,10,교체불필요,-,,https://www.dropbox.com/scl/fi/inxcn34ptzdtzuk5oi5c9/01227587376_2.jpg?rlkey=l5t7fi99t3eyyt7l0tf267xk4&dl=0,https://www.dropbox.com/scl/fi/p6mi1ltlieqq9xeqznh58/01227587376_1.jpg?rlkey=bnbn5nl184v9p3090407ppfy4&dl=0
102,FSM,01227587377,JECC1,37.1606,128.2129,310,충북 제천시 신죽하로 164,2,3,우리넷,normal,45,21년8월,2024.09.30 08:57:58,7129,소방청,8530ee13fffffff,19,양호,,,-,,,
103,SKM,01227587378,JSP05,33.2273,126.2602,19.11,제주 서귀포시 대정읍 상모대서로66번길 8,1,2,우리넷,normal,0,20년1월,2024.09.30 08:57:58,744,SKT1,8530d02ffffffff,8,양호,10,교체불필요,-,,,
104,SKM,01227587381,JIJ0J,35.18,128.1123,21.42,경남 진주시 동진로 193,1,3,우리넷,disc.,45,20년5월,2023.09.26 19:31:40,3151,대리점,-,,,,,-,,,
105,SKM,01227587383,DDH05,35.9109,128.6367,31.33,대구 동구 팔공로25길 40,3,3,우리넷,normal,45,20년1월,2024.09.30 08:57:58,264,SKT2,8530c193fffffff,81,초과밀,10,교체불필요,-,,,
106,SKM,01227587384,YOJ05,36.8089,128.624,140.88,경북 영주시 시청로 29,2,2,우리넷,normal,45,20년1월,2024.09.30 08:57:58,1597,SKT2,8530ee77fffffff,10,양호,10,교체불필요,-,,,
107,SKM,01227587388,ULJ07,36.7181,129.3565,157.35,경북 울진군 온정면 소태리 466-2,1,1,우리넷,normal,0,20년1월,2024.09.30 08:57:58,301,SKT1,8530eaa3fffffff,2,부족,5,교체검토,-,,,
108,SKM,01227587389,KYU01,35.9907,129.2233,15.99,경북 경주시 안강읍 비화원로 81-3,3,3,우리넷,normal,0,20년1월,2024.09.30 08:57:58,223,SKT1,8530ea7bfffffff,7,양호,6,관찰필요,-,,,
109,SKM,01227587391,DDS0M,35.8186,128.5378,46.88,대구 달서구 월배로 222,1,4,우리넷,disc.,45,20년5월,2021.12.11 11:31:52,2950,대리점,-,,,,,-,,,
110,SKM,01227587392,POH01,35.9662,129.4151,27.72,경북 포항시 남구 오천읍 정몽주로 537,4,4,우리넷,normal,0,20년1월,2024.09.30 08:57:58,233,SKT1,8530ea6bfffffff,15,양호,9,교체불필요,-,,,
111,SKM,01227587394,ULJ05,36.7326,129.475,19.04,경북 울진군 평해읍 제장로 129-32,1,1,우리넷,normal,0,20년1월,2024.09.30 08:57:58,276,SKT1,8530eaa7fffffff,4,부족,10,교체불필요,-,,,
112,SKM,01227587400,GUM03,36.0855,128.3592,55.45,경북 구미시 상사동로 10,2,2,우리넷,normal,0,20년1월,2024.09.30 08:57:58,298,SKT2,8530c53bfffffff,20,양호,8,교체불필요,-,,,
113,SKM,01227587404,AND03,36.5498,128.7338,117.2,경북 안동시 강남7길 23-9,1,2,우리넷,normal,0,20년1월,2024.09.30 08:57:58,255,SKT1,8530ead7fffffff,10,양호,9,교체불필요,-,,,
114,SKM,01227587405,DDK08,35.6948,128.4448,23.36,대구 달성군 현풍읍 비슬로130길 102,2,2,우리넷,normal,0,20년1월,2024.09.30 08:57:58,490,SKT1,8530c1d7fffffff,6,양호,9,교체불필요,-,,,
115,SKM,01227587407,KYU0B,35.8358,129.2864,108.37,경북 경주시 보문로 545-18,1,2,우리넷,normal,0,20년1월,2024.09.30 08:57:58,1268,SKT1,8530c1a7fffffff,7,양호,9,교체불필요,-,,,
116,SKM,01227587411,DSG01,35.8692,128.5468,47.88,대구 서구 국채보상로 143,4,4,우리넷,normal,0,20년1월,2024.09.30 08:57:58,210,SKT1,8530c193fffffff,81,초과밀,10,교체불필요,-,,,
117,FSM,01227587420,CNY0B,35.5504,128.4791,26.76,경남 창녕군 대지면 우포2로 1097,1,3,우리넷,disc.,45,21년8월,2024.03.26 16:37:50,5296,소방청,-,,,,,-,,,
118,SKM,01227587422,POH0A,36.0216,129.3527,7.09,경북 포항시 북구 포스코대로 256-1,2,4,우리넷,normal,0,20년1월,2024.09.30 08:57:58,1097,SKT2,8530ea63fffffff,20,양호,4,교체권장,-,,,
119,SKM,01227587427,CHI07,36.0771,128.4146,55.78,경북 칠곡군 석적읍 유학로 48,1,5,우리넷,disc.,45,20년5월,2022.07.18 11:22:09,2853,대리점,-,,,,,-,,,
120,SKM,01227587438,POH02,35.9889,129.357,5.63,경북 포항시 남구 연일읍 철강로 129,4,5,우리넷,normal,0,20년1월,2024.09.30 08:57:58,238,SKT1,8530ea6bfffffff,15,양호,9,교체불필요,-,,,
121,SKM,01227587440,DPG09,35.9016,128.5421,25.39,대구 북구 매천로18길 34,3,5,우리넷,normal,0,20년1월,2024.09.30 08:57:58,1934,SKT1,8530c193fffffff,81,초과밀,,,-,,,
122,SKM,01227587443,GUM06,36.11,128.4197,35.5,경북 구미시 수출대로 492-14,2,2,우리넷,normal,45,20년1월,2024.09.30 08:57:58,449,SKT2,8530c53bfffffff,20,양호,,,2,통품 불안정,,
123,SKM,01227587444,MOK08,34.8045,126.3969,7.31,전남 목포시 영산로 284,7,8,우리넷,disc.,0,20년1월,2024.07.10 21:04:12,1300,SKT1,-,,,,,-,,,
124,SKM,01227587446,KYU03,35.8435,129.1816,50.71,경북 경주시 충효녹지길 88,1,4,우리넷,normal,0,20년1월,2024.09.30 08:57:58,239,SKT1,8530c1b7fffffff,13,양호,9,교체불필요,-,,,
125,SKM,01227587448,GUM05,36.11,128.4197,35.5,경북 구미시 수출대로 492-14,1,2,우리넷,normal,45,20년1월,2024.09.30 08:57:58,447,SKT1,8530c53bfffffff,20,양호,9,교체불필요,-,,,
126,FSM,01227587449,KOH0V,34.5659,127.1739,8.36,전남 고흥군 도덕면 고흥로 459,2,2,우리넷,normal,0,21년8월,2024.09.30 08:57:58,6461,소방청,8530c213fffffff,9,양호,10,교체불필요,-,,,
127,SKM,01227587450,MOO02,36.5898,128.1949,84.35,경북 문경시 중앙로 42,2,2,우리넷,normal,45,20년1월,2024.09.30 08:57:58,1624,SKT2,8530ee4bfffffff,9,양호,7,교체불필요,-,,,
128,SKM,01227587452,DDS0D,35.8551,128.5736,51.51,대구 달서구 성당로51길 5,1,2,우리넷,normal,45,20년1월,2024.09.30 08:57:58,1722,SKT1,8530c193fffffff,81,초과밀,10,교체불필요,-,,,
129,SKM,01227587455,YOY01,36.6712,129.0991,525.73,경북 영양군 영양읍 함박산1길 207,1,1,우리넷,disc.,0,20년1월,2022.12.24 07:34:29,631,SKT1,-,,,,,-,,,
130,FSM,01227587456,YODC0,36.2357,127.7229,104.09,충북 영동군 심천면 심천로 74,2,2,우리넷,disc.,45,21년8월,2024.08.06 17:35:25,6987,소방청,-,,,,,-,,,
131,SKM,01227587457,DSS0N,35.825,128.6102,72.25,대구 수성구 파동로 252,1,1,우리넷,disc.,45,20년5월,0,2854,대리점,-,,,,,-,,,
132,SKM,01227587461,PSH08,35.0777,128.9767,3.19,부산 사하구 다대로 274,1,2,우리넷,disc.,45,20년5월,2021.08.02 13:52:26,2951,대리점,-,,,,,-,,,
133,SKM,01227587462,YOY02,36.702,129.1295,271.54,경북 영양군 일월면 영양로 2426,1,1,우리넷,normal,0,20년1월,2024.09.30 08:57:58,799,SKT2,8530eabbfffffff,1,부족,9,교체불필요,-,,,
134,SKM,01227587464,GUWBZ,36.1486,128.5988,112.67,대구 군위군 효령면 거매2길 4-6,1,1,우리넷,normal,0,22년 하반기 이후,2024.09.30 08:57:58,7397,SKT1,8530c537fffffff,8,양호,,,-,,,
135,SKM,01227587465,PJG06,35.0984,129.0297,13.23,부산 중구 구덕로 54-1,1,20,우리넷,disc.,45,20년5월,2022.02.24 15:21:10,3104,대리점,-,,,,,-,,,
136,FSM,01227587466,KOH13,34.7721,127.2849,12.49,전남 고흥군 대서면 봉두로 577,1,1,우리넷,normal,0,21년8월,2024.09.30 08:57:58,6659,소방청,8530c287fffffff,7,양호,10,교체불필요,-,,,
137,SKM,01227587469,JSP09,33.4403,126.88,64.51,제주 서귀포시 성산읍 서성일로 940,1,1,우리넷,normal,0,20년1월,2024.09.30 08:57:58,1586,SKT1,8530d10bfffffff,3,부족,10,교체불필요,-,,,
138,SKM,01227587470,HNA01,34.5726,126.6095,52.02,전남 해남군 해남읍 북부순환로 20,1,1,우리넷,normal,0,20년1월,2024.09.30 08:57:58,452,SKT2,8530c66bfffffff,7,양호,8,교체불필요,-,,,
139,SKM,01227587471,DDS06,35.8425,128.4877,18.83,대구 달서구 호산동로 84-18,2,2,우리넷,normal,45,20년1월,2024.09.30 08:57:58,398,SKT2,8530c567fffffff,17,양호,10,교체불필요,-,,,
140,SKM,01227587472,SAJ05,36.4024,128.1495,70.5,경북 상주시 경상대로 2860,2,2,우리넷,normal,45,20년1월,2024.09.30 08:57:58,1622,SKT2,8530c587fffffff,5,부족,7,교체불필요,-,,,
141,SKM,01227587475,AND05,36.5629,128.7022,131.69,경북 안동시 광명로 178,7,7,우리넷,normal,0,20년1월,2024.09.30 08:57:58,283,SKT1,8530ee6ffffffff,7,양호,10,교체불필요,-,,,
142,SKM,01227587478,PJI0Q,35.1579,129.0561,24.33,부산 부산진구 가야대로 773,1,1,우리넷,disc.,45,20년5월,2023.06.02 08:55:29,3015,대리점,-,,,,,-,,,
143,SKM,01227587479,PYJ05,35.1884,129.0814,10.8,부산 연제구 중앙대로 1130,1,20,우리넷,disc.,45,20년5월,2020.08.08 18:41:30,2893,대리점,-,,,,,-,,,
144,SKM,01227587481,KYU02,35.8926,129.0507,94.66,경북 경주시 서면 아화3길 24-4,4,4,우리넷,normal,0,20년1월,2024.09.30 08:57:58,224,SKT1,8530c1b3fffffff,4,부족,10,교체불필요,-,,,
145,SKM,01227587483,YDK01,36.3506,129.3828,70.94,경북 영덕군 강구면 해상공원길 113-7,1,1,우리넷,normal,0,20년1월,2024.09.30 08:57:58,323,SKT1,8530ea3bfffffff,6,양호,8,교체불필요,-,,,
146,SKM,01227587484,GUM0J,36.1559,128.4317,55.83,경북 구미시 산동읍 신당2로 29,1,8,우리넷,normal,45,20년5월,2024.09.30 08:57:58,2889,대리점,8530c533fffffff,9,양호,10,교체불필요,-,,,
147,SKM,01227587485,DDS05,35.8425,128.4877,18.83,대구 달서구 호산동로 84-18,1,2,우리넷,normal,45,20년1월,2024.09.30 08:57:58,396,SKT1,8530c567fffffff,17,양호,9,교체불필요,-,,,
148,SKM,01227587486,BON02,36.89,128.7338,191.1,경북 봉화군 봉화읍 꽃동네길 17,2,2,우리넷,normal,0,20년1월,2024.09.30 08:57:58,329,SKT2,8530ee2bfffffff,5,부족,7,교체불필요,-,,,
149,SKM,01227587487,YOC07,35.9614,128.9368,73.25,경북 영천시 역전로 32-1,1,2,우리넷,disc.,0,20년5월,0,3115,대리점,-,,,,,-,,,
150,FSM,01227587488,HAA0H,35.2646,128.3433,21.75,경남 함안군 군북면 함마대로 760,1,1,우리넷,normal,45,21년8월,2024.09.30 08:57:58,7225,소방청,8530c027fffffff,13,양호,10,교체불필요,-,,,
151,SKM,01227587489,GUM09,36.1206,128.3528,34.93,경북 구미시 구미중앙로 294,1,3,우리넷,disc.,0,20년1월,2023.04.20 10:41:21,1143,SKT1,-,,,,,-,,,
152,SKM,01227587491,PJI0P,35.1612,129.063,17.72,부산 부산진구 동성로 147,1,2,우리넷,disc.,0,20년5월,2023.10.14 13:09:02,2722,대리점,-,,,,,-,,,
153,SKM,01227587493,POH09,36.0088,129.3364,7.83,경북 포항시 남구 효자로118번길 34,2,2,우리넷,normal,0,20년1월,2024.09.30 08:57:58,362,SKT2,8530ea6bfffffff,15,양호,9,교체불필요,-,,,
154,SKM,01227587496,ULJ0A,36.6782,129.4404,8.09,경북 울진군 후포면 삼율로 7-11,2,2,우리넷,normal,0,20년1월,2024.09.30 08:57:58,1714,SKT2,8530eaaffffffff,4,부족,4,교체권장,-,,,
155,SKM,01227587497,POH08,36.0088,129.3364,7.83,경북 포항시 남구 효자로118번길 34,1,2,우리넷,normal,0,20년1월,2024.09.30 08:57:58,360,SKT2,8530ea6bfffffff,15,양호,9,교체불필요,-,,,
156,SKM,01227587499,JJJ02,33.4588,126.3174,31.37,제주 제주시 애월읍 애월리 2299-3,1,1,우리넷,normal,0,20년1월,2024.09.30 08:57:58,1187,SKT1,8530d1cbfffffff,12,양호,9,교체불필요,-,,,
157,KSM,01227587500,SAJCE,36.4079,128.1575,92,경북 상주시 남산2길 322,1,1,우리넷,normal,0,24년6월,2024.09.30 08:57:58,7802,기상청관측소,8530c587fffffff,5,부족,10,교체불필요,-,,,
158,SKM,01227587502,POH0H,36.0669,129.3814,21.7,경북 포항시 북구 용두산길 38,4,4,우리넷,normal,0,20년1월,2024.09.30 08:57:58,2002,SKT1,8530ea63fffffff,20,양호,7,교체불필요,-,,,
159,FSM,01227587503,KOH0X,34.5659,127.1739,8.36,전남 고흥군 도덕면 고흥로 459,1,2,우리넷,normal,45,21년8월,2024.09.30 08:57:58,6463,소방청,8530c213fffffff,9,양호,9,교체불필요,-,,,
160,SKM,01227587505,PPG0C,35.2354,129.012,7.28,부산 북구 금곡대로303번길 25,1,6,우리넷,disc.,0,20년5월,2023.03.22 19:48:46,3145,대리점,-,,,,,-,,,
161,SKM,01227587506,DDS07,35.8336,128.5091,21.8,대구 달서구 성서공단로50길 24,3,4,우리넷,normal,0,20년1월,2024.09.30 08:57:58,871,SKT1,8530c567fffffff,17,양호,10,교체불필요,-,,,
162,SKM,01227587508,GUM08,36.139,128.4439,35.53,경북 구미시 산동읍 산호대로43길 8-19,2,3,우리넷,normal,45,20년1월,2024.09.30 08:57:58,454,SKT1,8530c533fffffff,9,양호,3,교체필요,-,,,
163,SKM,01227587509,AND06,36.6652,128.6146,587.77,경북 안동시 북후면 학가산길 437,1,1,우리넷,normal,0,20년1월,2024.09.30 08:57:58,309,SKT1,8530ee6ffffffff,7,양호,9,교체불필요,-,,,
164,SKM,01227587511,DDS0Q,35.8557,128.5526,31.14,대구 달서구 달구벌대로 1708,1,5,우리넷,normal,45,20년5월,2024.09.30 08:57:58,2892,대리점,8530c193fffffff,81,초과밀,7,교체불필요,-,,,
165,SKM,01227587512,PHW0R,35.1678,129.1407,11.22,부산 해운대구 해운대로 407,1,9,우리넷,disc.,45,20년5월,2023.05.18 12:33:03,3066,대리점,-,,,,,-,,,
166,SKM,01227587513,DPG05,35.9026,128.6137,41.87,대구 북구 대불로 23,1,3,우리넷,normal,0,20년1월,2024.09.30 08:57:58,508,SKT1,8530c193fffffff,81,초과밀,9,교체불필요,-,,,
167,SKM,01227587515,CHI05,35.9871,128.4058,37.13,경북 칠곡군 왜관읍 평장2길 25,1,2,우리넷,normal,45,20년1월,2024.09.30 08:57:58,335,SKT1,8530c52bfffffff,11,양호,10,교체불필요,-,,,
168,SKM,01227587516,PSS0F,35.15,129.0129,49.74,부산 사상구 가야대로366번길 25,1,4,우리넷,normal,0,20년5월,2024.09.30 08:57:58,3114,대리점,8530c16bfffffff,77,초과밀,9,교체불필요,-,,,
169,SKM,01227587519,DDH04,35.9109,128.6367,31.33,대구 동구 팔공로25길 40,2,3,우리넷,normal,45,20년1월,2024.09.30 08:57:58,263,SKT1,8530c193fffffff,81,초과밀,10,교체불필요,-,,,
170,FSM,01227587520,NAMC4,34.8297,128.0061,8.49,경남 남해군 삼동면 동부대로 1795,1,2,우리넷,normal,45,21년8월,2024.09.30 08:57:58,6779,소방청,8530c3d7fffffff,4,부족,8,교체불필요,-,,,
171,SKM,01227587523,PSH0A,35.1067,128.9668,4.53,부산 사하구 낙동남로 1419,1,1,우리넷,normal,45,20년5월,2024.09.30 08:57:58,3067,대리점,8530c16bfffffff,77,초과밀,10,교체불필요,-,,,
172,SKM,01227587526,KYS12,35.9019,128.8489,82.76,경북 경산시 진량읍 대구대로 201,5,5,우리넷,normal,0,22년 하반기 이후,2024.09.30 08:57:58,7394,SKT1,8530c197fffffff,10,양호,,,-,,,
173,SKM,01227587527,YOC04,35.9595,128.9156,72.93,경북 영천시 오수2길 26,2,2,우리넷,normal,0,20년1월,2024.09.30 08:57:58,297,SKT2,8530ea4bfffffff,13,양호,8,교체불필요,-,,,
174,SKM,01227587532,CHS04,36.2857,128.9553,283.91,경북 청송군 안덕면 명당1길 32,1,1,우리넷,normal,45,20년1월,2024.09.30 08:57:58,1401,SKT2,8530eacffffffff,4,부족,10,교체불필요,-,,,
175,SKM,01227587534,DDH09,35.8735,128.7121,52.92,대구 동구 반야월북로 131-4,2,3,우리넷,normal,45,20년1월,2024.09.30 08:57:58,569,SKT2,8530c197fffffff,10,양호,7,교체불필요,-,,,
176,FSM,01227587538,DAN0G,37.1019,128.3584,236.47,충북 단양군 어상천면 어상천로 928-1,2,2,우리넷,disc.,45,21년8월,2021.10.22 09:39:14,7201,소방청,-,,,,,-,,,
177,SKM,01227587541,PGJ0B,35.2379,129.0886,21,부산 금정구 중앙대로1719번길 64,1,5,우리넷,normal,45,20년5월,2024.09.30 08:57:58,2980,대리점,8530c163fffffff,97,초과밀,8,교체불필요,-,,,
178,SKM,01227587542,PJI0R,35.1646,129.0395,48.19,부산 부산진구 당감로 34,1,3,우리넷,normal,45,20년5월,2024.09.30 08:57:58,2985,대리점,8530c163fffffff,97,초과밀,9,교체불필요,-,,,
179,FSM,01227587545,BOSC0,34.8385,127.3155,15.64,전남 보성군 벌교읍 녹색로 5247,1,3,우리넷,normal,45,21년8월,2024.09.30 08:57:58,7074,소방청,8530c04bfffffff,6,양호,10,교체불필요,-,,,
180,SKM,01227587546,GUM04,36.0855,128.3592,55.45,경북 구미시 상사동로 10,1,2,우리넷,normal,0,20년1월,2024.09.30 08:57:58,299,SKT2,8530c53bfffffff,20,양호,9,교체불필요,-,,,
181,SKM,01227587548,DSS03,35.8297,128.6929,105.37,대구 수성구 노변동 650,2,2,우리넷,normal,0,20년1월,2024.09.30 08:57:58,280,SKT1,8530c183fffffff,24,과밀,7,교체불필요,-,,,
182,SKM,01227587550,DDK03,35.7742,128.4238,26.65,대구 달성군 논공읍 금강로1길 22-9,2,3,우리넷,normal,45,20년1월,2024.09.30 08:57:58,257,SKT1,8530c56ffffffff,4,부족,10,교체불필요,-,,,
183,SKM,01227587551,PJI0O,35.1538,129.0589,15.91,부산 부산진구 중앙대로 683-1,1,3,우리넷,disc.,45,20년5월,2021.06.26 12:34:01,2755,대리점,-,,,,,-,,,
184,SKM,01227587552,KYS14,35.8205,128.726,62.29,경북 경산시 옥산로 57,1,3,우리넷,normal,0,22년 하반기 이후,2024.09.30 08:57:58,7396,SKT1,8530c183fffffff,24,과밀,9,교체불필요,-,,,
185,SKM,01227587554,SJR0D,37.5704,127.0095,27.18,서울 종로구 율곡로 지하 308,3,4,우리넷,normal,0,20년1월,2024.09.30 08:57:58,1426,SKT1,8530e1dbfffffff,153,초과밀,10,교체불필요,-,,,
186,SKM,01227587555,PGJ09,35.2313,129.0847,28.44,부산 금정구 부산대학로 59,1,4,우리넷,disc.,45,20년5월,2023.05.24 09:41:13,2954,대리점,-,,,,,-,,,
187,SKM,01227587556,GUM0N,36.099,128.4254,38.58,경북 구미시 인동16길 5,1,4,우리넷,disc.,45,20년5월,2021.01.29 10:47:08,3055,대리점,-,,,,,-,,,
188,SKM,01227587557,EUI05,36.3915,128.684,208.15,경북 의성군 의성읍 업리 579,1,1,우리넷,normal,0,20년1월,2024.09.30 08:57:58,1689,SKT1,8530eadbfffffff,9,양호,9,교체불필요,-,,,
189,FSM,01227587558,BOSBX,34.7802,127.2014,11.38,전남 보성군 득량면 예당길 186,1,1,우리넷,normal,45,21년8월,2024.09.30 08:57:58,6947,소방청,8530c287fffffff,7,양호,5,교체검토,-,,,
190,SKM,01227587559,POH06,36.1109,129.3479,18.24,경북 포항시 북구 흥해읍 흥해로 70,6,7,우리넷,normal,0,20년1월,2024.09.30 08:57:58,300,SKT1,8530ea63fffffff,20,양호,10,교체불필요,-,,,
191,SKM,01227587562,YOJ04,36.8089,128.624,140.88,경북 영주시 시청로 29,1,2,우리넷,normal,0,20년1월,2024.09.30 08:57:58,1594,SKT2,8530ee77fffffff,10,양호,4,교체권장,-,,,
192,SKM,01227587564,DDH0A,35.9419,128.6384,57.75,대구 동구 파계로6길 56,1,2,우리넷,normal,0,20년1월,2024.09.30 08:57:58,1986,SKT1,8530c52ffffffff,5,부족,8,교체불필요,-,,,
193,SKM,01227587565,GOR01,35.7283,128.2734,24.87,경북 고령군 대가야읍 일량로 10-1,2,2,우리넷,normal,0,20년1월,2024.09.30 08:57:58,476,SKT2,8530c56bfffffff,3,부족,8,교체불필요,-,,,
194,SKM,01227587566,CHA1A,35.2235,128.6857,24.36,경남 창원시 성산구 마디미로3번길 2,1,8,우리넷,normal,45,20년5월,2024.09.30 08:57:58,3143,대리점,8530c147fffffff,23,과밀,10,교체불필요,-,,,
195,SKM,01227587567,PHW0V,35.1635,129.1618,11.32,부산 해운대구 중동1로 17,1,7,우리넷,disc.,45,20년5월,0,2709,대리점,-,,,,,-,,,
196,SKM,01227587568,JIJ0G,35.1533,128.1064,25.22,경남 진주시 진주대로 522,1,7,우리넷,disc.,0,20년5월,2020.11.27 19:36:55,2968,대리점,-,,,,,-,,,
197,FSM,01227587571,BOSBY,34.8065,127.2453,10.27,전남 보성군 조성면 조성로 90-6,1,1,우리넷,normal,45,21년8월,2024.09.30 08:57:58,6948,소방청,8530c287fffffff,7,양호,1,교체필수,-,,,
198,SKM,01227587572,DJG03,35.8653,128.5962,43.31,대구 중구 달구벌대로 2125,8,10,우리넷,disc.,0,20년1월,2024.01.03 11:55:18,272,SKT1,-,,,,,-,,,
199,SKM,01227587575,YUS05,34.8731,127.7067,29.66,전남 여수시 묘도1길 25-53,1,1,우리넷,normal,0,20년1월,2024.09.30 08:57:58,456,SKT1,8530c06bfffffff,1,부족,9,교체불필요,-,,,
200,SKM,01227587577,PJI0T,35.1509,129.0245,61.8,부산 부산진구 냉정로 226,1,4,우리넷,normal,0,20년5월,2024.09.30 08:57:58,2717,대리점,8530c16bfffffff,77,초과밀,10,교체불필요,-,,,
201,SKM,01227587578,YOJ01,36.8016,128.6102,145.83,경북 영주시 한정로 56,3,4,우리넷,normal,0,20년1월,2024.09.30 08:57:58,305,SKT1,8530ee77fffffff,10,양호,5,교체검토,-,,,
202,SKM,01227587579,ULL01,37.4753,130.8939,19.41,경북 울릉군 울릉읍 울릉순환로 542-2,1,2,우리넷,normal,0,20년1월,2024.09.30 08:57:58,1706,SKT1,852e4963fffffff,8,양호,8,교체불필요,-,,,
203,FSM,01227587581,JECBZ,37.1187,128.2041,236.52,충북 제천시 강명길 17,1,3,우리넷,normal,45,21년8월,2024.09.30 08:57:58,5297,소방청,8530ee13fffffff,19,양호,8,교체불필요,-,,,
204,SKM,01227587582,KYS11,35.875,128.8245,67.56,경북 경산시 진량읍 공단1로1길 65-1,1,2,우리넷,normal,45,22년 하반기 이후,2024.09.30 08:57:58,7393,SKT1,8530c187fffffff,5,부족,10,교체불필요,-,,,
205,SKM,01227587583,SUN08,34.9794,127.4838,20.76,전남 순천시 중앙로 379,1,2,우리넷,normal,0,20년1월,2024.09.30 08:57:58,637,SKT2,8530c043fffffff,4,부족,8,교체불필요,-,,,
206,SKM,01227587586,PJI0U,35.165,129.0508,37.06,부산 부산진구 신천대로 258,1,13,우리넷,disc.,45,20년5월,2021.11.20 06:48:04,2986,대리점,-,,,,,-,,,
207,FSM,01227587587,KOH12,34.6836,127.3719,18.92,전남 고흥군 과역면 과역로 974,1,3,우리넷,normal,0,21년8월,2024.09.30 08:57:58,6658,소방청,8530c2bbfffffff,4,부족,8,교체불필요,-,,,
208,SKM,01227587588,YDK04,36.5405,129.406,10.77,경북 영덕군 영해면 예주시장1길 24,1,1,우리넷,normal,0,20년1월,2024.09.30 08:57:57,345,SKT1,8530ea33fffffff,6,양호,4,교체권장,-,,,
209,SKM,01227587589,DSS0D,35.82,128.6409,108.22,대구 수성구 지범로 204,1,5,우리넷,disc.,45,20년5월,2024.07.22 12:41:39,2876,대리점,-,,,,,-,,,
210,SKM,01227587590,CHS03,36.5217,129.0383,206.93,경북 청송군 진보면 돈골길 229,2,2,우리넷,normal,0,20년1월,2024.09.30 08:57:58,827,SKT2,8530ea13fffffff,6,양호,8,교체불필요,-,,,
211,SKM,01227587592,WAS0G,35.3106,129.0053,2.68,경남 양산시 물금읍 증산역로 135,1,11,우리넷,disc.,45,20년5월,2021.04.27 09:20:35,2933,대리점,-,,,,,-,,,
212,SKM,01227587593,SUJ01,35.8318,128.1942,97.9,경북 성주군 수륜면 참별로 902,2,4,우리넷,normal,0,20년1월,2024.09.30 08:57:58,318,SKT1,8530c563fffffff,1,부족,7,교체불필요,-,,,
213,SKM,01227587594,CHA1C,35.2244,128.685,24.48,경남 창원시 성산구 원이대로 654,1,10,우리넷,disc.,0,20년5월,2022.12.21 15:29:02,2952,대리점,-,,,,,-,,,
214,SKM,01227587595,KYS0C,35.8966,128.8045,48.5,경북 경산시 하양읍 하양유원지길 4,1,1,우리넷,disc.,0,20년1월,2024.08.24 09:12:22,346,SKT1,-,,,,,-,,,
215,SKM,01227587596,KYU05,35.8676,129.2215,34.4,경북 경주시 원지길 32,3,3,우리넷,normal,45,20년1월,2024.09.30 08:57:58,256,SKT1,8530c1b7fffffff,13,양호,10,교체불필요,-,,,
216,SKM,01227587600,YOJ03,36.976,128.6497,317.29,경북 영주시 부석면 노곡리 산 29-6,1,1,우리넷,normal,0,20년1월,2024.09.30 08:57:58,370,SKT1,8530ee3bfffffff,3,부족,9,교체불필요,-,,,
217,SKM,01227587603,PSS0E,35.1718,128.9829,1.41,부산 사상구 사상로 303,1,2,우리넷,disc.,45,20년5월,2021.06.04 09:24:05,2702,대리점,-,,,,,-,,,
218,SKM,01227587605,KIC04,36.1301,128.1825,72.95,경북 김천시 율곡동 1087,2,2,우리넷,normal,0,20년1월,2024.09.30 08:57:58,1321,SKT2,8530c507fffffff,14,양호,7,교체불필요,-,,,
219,FSM,01227587606,HADB2,35.1108,127.809,26.09,경남 하동군 횡천면 횡보길 6,1,2,우리넷,normal,0,21년8월,2024.09.30 08:57:58,5298,소방청,8530c073fffffff,7,양호,7,교체불필요,-,,,
220,SKM,01227587608,DSS07,35.8414,128.7008,51.13,대구 수성구 달구벌대로 3144,3,3,우리넷,normal,0,20년1월,2024.09.30 08:57:59,1551,SKT1,8530c183fffffff,24,과밀,10,교체불필요,-,,,
221,FSM,01227587610,KOH0R,34.457,127.123,6.17,전남 고흥군 금산면 거금중앙길 52,1,1,우리넷,normal,45,21년8월,2024.09.30 08:57:58,5299,소방청,8530c213fffffff,9,양호,9,교체불필요,-,,,
222,SKM,01227587611,GUM0E,36.1165,128.3388,50.46,경북 구미시 신시로 97,1,7,우리넷,normal,45,20년5월,2024.09.30 08:57:58,2827,대리점,8530c507fffffff,14,양호,9,교체불필요,-,,,
223,SKM,01227587612,KYU09,35.8107,129.488,196.41,경북 경주시 감포읍 가래실길 167-1,1,1,우리넷,normal,0,20년1월,2024.09.30 08:57:58,348,SKT1,8530ccd3fffffff,11,양호,9,교체불필요,-,,,
224,SKM,01227587614,YEC01,36.6528,128.4567,105.49,경북 예천군 예천읍 중앙로 71-5,2,2,우리넷,normal,0,20년1월,2024.09.30 08:57:58,242,SKT1,8530ee7bfffffff,3,부족,10,교체불필요,-,,,
225,SKM,01227587615,ULJ01,36.8634,129.4044,391.15,경북 울진군 기성면 현종산길 535,1,1,우리넷,normal,0,20년1월,2024.09.30 08:57:58,243,SKT1,8530eab7fffffff,3,부족,4,교체권장,-,,,
226,SKM,01227587618,DDS08,35.8402,128.5451,28.52,대구 달서구 당산로 32,4,5,우리넷,normal,0,20년1월,2024.09.30 08:57:58,873,SKT2,8530c193fffffff,81,초과밀,9,교체불필요,-,,,
227,SKM,01227587619,PHW0S,35.1887,129.1264,69.57,부산 해운대구 재반로 115,1,3,우리넷,normal,45,20년5월,2024.09.30 08:57:58,3070,대리점,8530c16ffffffff,63,초과밀,10,교체불필요,-,,,
228,SKM,01227587621,KIC01,36.1191,128.1241,70.04,경북 김천시 자산로 69-3,4,5,우리넷,normal,0,20년1월,2024.09.30 08:57:58,234,SKT1,8530c503fffffff,11,양호,9,교체불필요,-,,,
229,SKM,01227587622,KYU07,35.7747,129.3015,95.77,경북 경주시 소정1길 11-11,3,3,우리넷,normal,0,20년1월,2024.09.30 08:57:58,311,SKT1,8530c1a7fffffff,7,양호,10,교체불필요,-,,,
230,SKM,01227587623,YDK02,36.4119,129.3683,17,경북 영덕군 영덕읍 덕곡길 101,3,3,우리넷,normal,0,20년1월,2024.09.30 08:57:58,328,SKT1,8530ea07fffffff,4,부족,10,교체불필요,-,,,
231,SKM,01227587624,SAJ02,36.5134,128.1577,67.96,경북 상주시 공검면 비재로 1285-12,1,1,우리넷,disc.,0,20년1월,2023.04.20 13:07:32,262,SKT1,-,,,,,-,,,
232,SKM,01227587626,AND01,36.5772,128.5763,84.29,경북 안동시 풍산읍 하리들길 9,1,2,우리넷,normal,45,20년1월,2024.09.30 08:57:58,236,SKT1,8530ee6bfffffff,7,양호,6,관찰필요,-,,,
233,SKM,01227587628,GUM0L,36.1515,128.3296,67.55,경북 구미시 고아읍 문장로25길 3,1,1,우리넷,disc.,0,20년5월,2022.12.13 14:46:26,3003,대리점,-,,,,,-,,,
234,FSM,01227587629,BOSC1,34.8385,127.3155,15.64,전남 보성군 벌교읍 녹색로 5247,2,3,우리넷,normal,0,21년8월,2024.09.30 08:57:58,7261,소방청,8530c04bfffffff,6,양호,10,교체불필요,-,,,
235,SKM,01227587631,CHI0R,35.9835,128.3828,24.73,경북 칠곡군 기산면 주산로 1182,1,3,우리넷,normal,0,22년 하반기 이후,2024.09.30 08:57:59,7405,SKT1,8530c577fffffff,5,부족,,,-,,,
236,SKM,01227587632,UNG0F,35.5348,129.3221,3.43,울산 남구 신정로 33,1,4,우리넷,normal,45,20년5월,2024.09.30 08:57:58,2810,대리점,8530c123fffffff,31,과밀,10,교체불필요,-,,,
237,SKM,01227587633,ULJ06,36.8344,129.4363,51.26,경북 울진군 기성면 기성로 1130,1,1,우리넷,normal,0,20년1월,2024.09.30 08:57:58,289,SKT1,8530eaa7fffffff,4,부족,7,교체불필요,-,,,
238,FSM,01227587635,KOH0Y,34.5259,127.1412,0,전남 고흥군 도양읍 녹동신항5길 4,1,2,우리넷,normal,0,21년8월,2024.09.30 08:57:58,6465,소방청,8530c213fffffff,9,양호,10,교체불필요,-,,,
239,FSM,01227587636,JINAT,36.8993,127.5107,68.09,충북 진천군 덕산읍 초금로 606-1,1,2,우리넷,normal,45,21년8월,2024.09.30 08:57:59,5301,소방청,8530e3abfffffff,6,양호,10,교체불필요,-,,,
240,SKM,01227587639,CHI01,36.0992,128.5371,107.72,경북 칠곡군 가산면 석우리 900-1,1,1,우리넷,normal,0,20년1월,2024.09.30 08:57:58,218,SKT1,8530c523fffffff,3,부족,6,관찰필요,-,,,
241,SKM,01227587640,PGJ0C,35.2484,129.0911,28.92,부산 금정구 금정로233번길 85,1,8,우리넷,disc.,45,20년5월,2023.01.06 18:57:44,2999,대리점,-,,,,,-,,,
242,SKM,01227587642,KYU04,35.8135,129.1879,39.9,경북 경주시 율동 659-1,2,2,우리넷,normal,45,20년1월,2024.09.30 08:57:58,248,SKT1,8530c1a3fffffff,3,부족,10,교체불필요,-,,,
243,FSM,01227587643,YUS1M,34.7548,127.7267,17,전남 여수시 좌수영로 162,1,3,우리넷,normal,45,21년8월,2024.09.30 08:57:58,6808,소방청,8530c2a7fffffff,29,과밀,10,교체불필요,-,,,
244,SKM,01227587644,DDS0N,35.8583,128.5303,39.53,대구 달서구 용산로 231,1,4,우리넷,disc.,45,20년5월,2023.06.26 18:05:01,2962,대리점,-,,,,,-,,,
245,SKM,01227587646,POH07,36.0325,129.3666,7.24,경북 포항시 북구 중앙로 220,6,6,우리넷,normal,0,20년1월,2024.09.30 08:57:58,306,SKT1,8530ea63fffffff,20,양호,9,교체불필요,-,,,
246,SKM,01227587647,KIH0H,35.3072,128.7349,7.24,경남 김해시 진영읍 장등로 9,1,5,우리넷,disc.,0,20년5월,2020.06.05 11:30:36,2992,대리점,-,,,,,-,,,
247,SKM,01227587648,PSY08,35.147,129.1111,18.88,부산 수영구 수영로464번길 18,1,4,우리넷,disc.,45,20년5월,2022.05.03 11:26:32,2898,대리점,-,,,,,-,,,
248,SKM,01227587649,EUI03,36.3223,128.6484,74.62,경북 의성군 봉양면 경북대로 5253,1,1,우리넷,normal,0,20년1월,2024.09.30 08:57:58,541,SKT1,8530eadbfffffff,9,양호,9,교체불필요,-,,,
249,SKM,01227587650,UNG0E,35.5396,129.3372,1.97,울산 남구 삼산로 275,1,8,우리넷,disc.,0,20년5월,2020.07.24 20:57:39,2708,대리점,-,,,,,-,,,
250,SKM,01227587653,PSH07,35.1064,128.9687,6.88,부산 사하구 낙동대로 466,1,7,우리넷,disc.,0,20년5월,2022.01.24 18:54:47,2694,대리점,-,,,,,-,,,
251,FSM,01227587655,KOH1B,34.4633,127.4588,5.48,전남 고흥군 봉래면 나로도항길 13,1,2,우리넷,disc.,45,21년8월,2024.04.05 18:18:45,6801,소방청,-,,,,,-,,,
252,SKM,01227587658,DDS0C,35.8254,128.5464,55.99,대구 달서구 월배로 333,3,8,우리넷,normal,0,20년1월,2024.09.30 08:57:58,1544,SKT1,8530c19bfffffff,10,양호,8,교체불필요,-,,,
253,SKM,01227587659,PPG0A,35.2103,129.0073,3.32,부산 북구 만덕대로 20,1,5,우리넷,disc.,45,20년5월,2023.12.11 08:52:52,2705,대리점,-,,,,,-,,,
254,FSM,01227587660,CNY0C,35.5504,128.4791,26.76,경남 창녕군 대지면 우포2로 1097,1,3,우리넷,disc.,45,21년8월,2024.03.20 10:08:48,5302,소방청,-,,,,,-,,,
255,SKM,01227587662,AND02,36.4704,128.6634,121.59,경북 안동시 일직면 하나들길 8,1,1,우리넷,normal,0,20년1월,2024.09.30 08:57:58,247,SKT1,8530ead3fffffff,3,부족,10,교체불필요,-,,,
256,SKM,01227587663,KIC02,36.1289,128.1016,69.29,경북 김천시 시민로 56,4,4,우리넷,disc.,45,20년1월,2023.08.08 11:48:49,240,SKT1,-,,,,,-,,,
257,SKM,01227587665,DDK0D,35.7309,128.4515,26.91,대구 달성군 논공읍 논공로 695,3,3,우리넷,normal,0,20년1월,2024.09.30 08:57:58,888,SKT1,8530c56ffffffff,4,부족,10,교체불필요,-,,,
258,SKM,01227587666,YDK03,36.5168,129.4322,250.32,경북 영덕군 축산면 축산리 산 5-2,1,1,우리넷,normal,0,20년1월,2024.09.30 08:57:58,336,SKT1,8530ea33fffffff,6,양호,8,교체불필요,-,,,
259,SKM,01227587667,POH03,36.0688,129.372,35.95,경북 포항시 북구 새천년대로 1123,2,4,우리넷,normal,0,20년1월,2024.09.30 08:57:58,251,SKT1,8530ea63fffffff,20,양호,10,교체불필요,-,,,
260,FSM,01227587668,EUM0H,37.0165,127.5034,115.51,충북 음성군 삼성면 금일로 831,2,3,우리넷,normal,45,21년8월,2024.09.30 08:57:58,5303,소방청,8530e3a3fffffff,5,부족,10,교체불필요,-,,,
261,SKM,01227587670,KYU0D,35.8445,129.2333,57.94,경북 경주시 알천북로 327,1,2,우리넷,normal,45,20년1월,2024.09.30 08:57:58,1288,SKT1,8530c1b7fffffff,13,양호,10,교체불필요,-,,,
262,SKM,01227587671,GGG0A,35.1738,126.8087,22.61,광주 광산구 사암로 329,4,4,우리넷,normal,0,20년1월,2024.09.30 08:57:58,440,SKT1,8530c6abfffffff,9,양호,9,교체불필요,-,,,
263,SKM,01227587672,KYS0G,35.8111,128.7544,87.6,경북 경산시 백자로 58,1,4,우리넷,disc.,45,20년5월,2024.07.05 14:02:48,2832,대리점,-,,,,,-,,,
264,SKM,01227587674,AND08,36.5891,128.7424,174.73,경북 안동시 상아동 267-8,1,1,우리넷,normal,45,20년1월,2024.09.30 08:57:58,1990,SKT1,8530ead7fffffff,10,양호,9,교체불필요,-,,,
265,SKM,01227587677,PSY0A,35.155,129.1184,8.34,부산 수영구 광남로 156,1,3,우리넷,normal,45,20년5월,2024.09.30 08:57:59,3154,대리점,8530c16ffffffff,63,초과밀,8,교체불필요,-,,,
266,SKM,01227587678,POH0B,35.9942,129.4045,9.56,경북 포항시 남구 정몽주로 888,1,2,우리넷,normal,45,20년1월,2024.09.30 08:57:58,1279,SKT2,8530ea6bfffffff,15,양호,10,교체불필요,-,,,
267,SKM,01227587680,PNG09,35.1356,129.101,12.14,부산 남구 용소로 19,1,7,우리넷,normal,45,20년5월,2024.09.30 08:57:58,2704,대리점,8530c16ffffffff,63,초과밀,8,교체불필요,-,,,
268,SKM,01227587681,DAN01,36.9194,128.4264,833.54,충북 단양군 대강면 소백산길 446,5,9,우리넷,normal,0,20년1월,2024.09.30 08:57:58,340,SKT1,8530ee0ffffffff,1,부족,8,교체불필요,-,,,
269,SKM,01227587685,YOJ02,36.813,128.621,141.83,경북 영주시 꽃동산로 32,3,4,우리넷,normal,0,20년1월,2024.09.30 08:57:58,307,SKT1,8530ee77fffffff,10,양호,9,교체불필요,-,,,
270,SKM,01227587686,CHI08,36.0761,128.4076,42.43,경북 칠곡군 석적읍 장곡길 115,1,1,우리넷,normal,45,20년5월,2024.09.30 08:57:58,3121,대리점,8530c53bfffffff,20,양호,9,교체불필요,-,,,
271,FSM,01227587688,HADB7,35.0623,127.7743,4.64,경남 하동군 적량면 공설운동장로 169,2,2,우리넷,normal,45,21년8월,2024.09.30 08:57:58,6466,소방청,8530c073fffffff,7,양호,8,교체불필요,-,,,
272,SKM,01227587690,NYJ02,37.7203,127.1852,52.7,경기 남양주시 진접읍 장현로 126,4,5,우리넷,disc.,0,20년1월,2023.08.20 17:30:03,740,SKT1,-,,,,,-,,,
273,SKM,01227587691,JIJ0I,35.1781,128.092,23.94,경남 진주시 진주대로 868,1,5,우리넷,disc.,45,20년5월,2020.09.05 13:56:58,2996,대리점,-,,,,,-,,,
274,FSM,01227587693,KOH15,34.5128,127.3217,18.92,전남 고흥군 도화면 도화로 500,1,1,우리넷,normal,45,21년8월,2024.09.30 08:57:58,6661,소방청,8530c217fffffff,6,양호,10,교체불필요,-,,,
275,SKM,01227587694,CHA15,35.2397,128.6544,8.89,경남 창원시 성산구 원이대로 320,1,6,우리넷,normal,45,20년5월,2024.09.30 08:57:58,2976,대리점,8530c143fffffff,37,과밀,8,교체불필요,-,,,
276,SKM,01227587695,ULJ08,36.7198,129.3946,50.35,경북 울진군 온정면 광품1길 2,1,1,우리넷,disc.,0,20년1월,2024.07.12 11:04:57,303,SKT1,-,,,,,-,,,
277,SKM,01227587697,DDK06,35.8033,128.6223,89.49,대구 달성군 가창면 가창로 1108,3,4,우리넷,normal,0,20년1월,2024.09.30 08:57:58,314,SKT1,8530c183fffffff,24,과밀,,,-,,,
278,SKM,01227587698,GUW02,36.236,128.5658,82.08,대구 군위군 군위읍 동서길 34,3,3,우리넷,normal,0,20년1월,2024.09.30 08:57:58,361,SKT1,8530c537fffffff,8,양호,7,교체불필요,-,,,
279,SKM,01227587700,POH0F,36.236,129.3304,70.25,경북 포항시 북구 송라면 중리길 76,1,1,우리넷,normal,0,20년1월,2024.09.30 08:57:58,1725,SKT1,8530ea77fffffff,4,부족,9,교체불필요,-,,,
280,SKM,01227587701,UJG07,35.5539,129.32,5.42,울산 중구 젊음의1거리 23,1,3,우리넷,disc.,45,20년5월,2022.05.02 20:05:41,2863,대리점,-,,,,,-,,,
281,SKM,01227587705,GUW01,36.25,128.5685,85.83,대구 군위군 군위읍 정2길 9,2,2,우리넷,normal,0,20년1월,2024.09.30 08:57:58,245,SKT2,8530c537fffffff,8,양호,8,교체불필요,-,,,
282,SKM,01227587707,PHW0T,35.1951,129.1308,135.74,부산 해운대구 재반로 200-1,1,3,우리넷,normal,0,20년5월,2024.09.30 08:57:58,3098,대리점,8530c16ffffffff,63,초과밀,9,교체불필요,-,,,
283,SKM,01227587711,KYS15,35.8242,128.7378,53.52,경북 경산시 경안로 186,5,5,우리넷,normal,0,22년 하반기 이후,2024.09.30 08:57:58,7400,SKT1,8530c183fffffff,24,과밀,10,교체불필요,-,,,
284,SKM,01227587712,DDK05,35.9363,128.4644,33.44,대구 달성군 하빈면 하빈로171길 28-31,1,1,우리넷,normal,0,20년1월,2024.09.30 08:57:58,277,SKT1,8530c52bfffffff,11,양호,6,관찰필요,-,,,
285,SKM,01227587713,WON2L,37.2817,127.8513,295.73,강원 원주시 문막읍 궁말길 193,1,1,우리넷,normal,0,22년 하반기 이후,2024.09.30 08:57:58,7382,SKT1,8530e16ffffffff,10,양호,,,-,,,
286,SKM,01227587714,DDS0B,35.8254,128.5464,55.99,대구 달서구 월배로 333,8,8,우리넷,normal,0,20년1월,2024.09.30 08:57:58,1543,SKT1,8530c19bfffffff,10,양호,5,교체검토,-,,,
287,SKM,01227587718,KYS0I,35.8138,128.7319,58.98,경북 경산시 경산로 53,1,5,우리넷,disc.,45,20년5월,2024.04.06 12:33:18,2972,대리점,-,,,,,-,,,
288,SKM,01227587719,YKW03,35.4068,126.4865,121.3,전남 영광군 홍농읍 월암리 산 17,1,1,우리넷,normal,0,20년1월,2024.09.30 08:57:58,1366,SKT1,8530c687fffffff,3,부족,10,교체불필요,-,,,
289,SKM,01227587721,ULJ03,37.0597,129.4182,37.29,경북 울진군 죽변면 죽변9길 80,1,1,우리넷,normal,0,20년1월,2024.09.30 08:57:58,250,SKT1,8530e87bfffffff,5,부족,4,교체권장,-,,,
290,SKM,01227587722,CHA19,35.2235,128.6831,21.67,경남 창원시 성산구 상남로 118,1,11,우리넷,disc.,0,20년5월,2022.05.06 13:19:22,3135,대리점,-,,,,,-,,,
291,SKM,01227587724,HNA04,34.452,126.6195,648.5,전남 해남군 현산면 황산리 1-1,2,2,우리넷,normal,0,20년1월,2024.09.30 08:57:58,821,SKT1,8530c2dbfffffff,7,양호,10,교체불필요,2,통품 불안정,,
292,SKM,01227587725,KYU0A,35.8445,129.2332,57.76,경북 경주시 알천북로 327,1,2,우리넷,normal,0,20년1월,2024.09.30 08:57:58,395,SKT1,8530c1b7fffffff,13,양호,6,관찰필요,-,,,
293,SKM,01227587727,CHA1B,35.2168,128.6851,20.58,경남 창원시 성산구 동산로65번길 24,5,5,우리넷,normal,45,20년5월,2024.09.30 08:57:58,3152,대리점,8530c147fffffff,23,과밀,10,교체불필요,-,,,
294,SKM,01227587728,SJG1L,37.5665,126.9851,25.21,서울 중구 을지로 65,30,40,우리넷,normal,0,20년4월,2024.09.30 08:57:58,2604,SKT3,-,,,,,-,,,
295,SKM,01227587729,YEC04,36.5764,128.4897,113.58,경북 예천군 호명읍 새움3로 26,1,8,우리넷,disc.,45,20년5월,2023.08.12 11:43:28,2847,대리점,-,,,,,-,,,
296,SKM,01227587730,PGJ08,35.2312,129.0887,20.23,부산 금정구 부산대학로 22,1,4,우리넷,disc.,45,20년5월,2022.03.15 08:55:11,2707,대리점,-,,,,,-,,,
297,SKM,01227587733,UJG09,35.5592,129.3439,4.48,울산 중구 염포로 20,1,4,우리넷,normal,45,20년5월,2024.09.30 08:57:58,3149,대리점,8530c137fffffff,23,과밀,8,교체불필요,-,,,
298,SKM,01227587737,GUM0B,36.149,128.311,54,경북 구미시 봉곡남로 77,3,4,우리넷,normal,0,20년1월,2024.09.30 08:57:58,1231,SKT1,8530c507fffffff,14,양호,9,교체불필요,-,,,
299,SKM,01227587738,GUM01,36.241,128.3007,44.28,경북 구미시 선산읍 남문로3길 10,2,3,우리넷,normal,0,20년1월,2024.09.30 08:57:58,237,SKT1,8530c5abfffffff,8,양호,5,교체검토,-,,,
300,SKM,01227587739,GDG02,35.1479,126.937,82.27,광주 동구 밤실로 2,2,4,우리넷,normal,0,20년1월,2024.09.30 08:57:58,1180,SKT1,8530c637fffffff,17,양호,9,교체불필요,-,,,
301,SKM,01227587740,AND0B,36.5643,128.7146,88.35,경북 안동시 경동로 517,1,5,우리넷,disc.,0,20년5월,2020.12.02 13:45:58,3119,대리점,-,,,,,-,,,
302,SKM,01227587742,EUI04,36.2683,128.6775,92.52,경북 의성군 금성면 조문로 956,1,1,우리넷,normal,0,20년1월,2024.09.30 08:57:58,559,SKT1,8530eacbfffffff,5,부족,,,-,,,
303,SKM,01227587743,SAJ01,36.3664,128.2964,51.78,경북 상주시 낙동면 영남제일로 130,1,1,우리넷,normal,0,20년1월,2024.09.30 08:57:58,259,SKT1,8530c5a3fffffff,8,양호,10,교체불필요,-,,,
304,SKM,01227587744,UDG09,35.4989,129.4212,15.3,울산 동구 대학길 59,1,4,우리넷,disc.,0,20년5월,2024.09.03 22:01:54,2964,대리점,-,,,,,-,,,
305,SKM,01227587746,AND04,36.5789,128.7166,105.92,경북 안동시 제비원로 307-1,3,4,우리넷,disc.,0,20년1월,2023.08.03 11:44:33,261,SKT1,-,,,,,-,,,
306,SKM,01227587747,JSP1M,33.2635,126.6165,44.25,제주 서귀포시 효돈로 166,1,5,우리넷,normal,0,22년2월,2024.09.30 08:57:58,7327,SKT1,8530d143fffffff,18,양호,10,교체불필요,-,,,
307,SKM,01227587749,DDH03,35.957,128.6923,152.56,대구 동구 팔공산로 1661,2,2,우리넷,normal,0,20년1월,2024.09.30 08:57:58,260,SKT1,8530c52ffffffff,5,부족,6,관찰필요,-,,,
308,SKM,01227587751,NYJ0A,37.7159,127.1792,51.67,경기 남양주시 진접읍 장현로47번길 6-2,3,5,우리넷,normal,0,20년1월,2024.09.30 08:57:58,2275,SKT1,8530e1c7fffffff,15,양호,10,교체불필요,-,,,
309,SKM,01227587754,KOH04,34.6059,127.2804,32.21,전남 고흥군 고흥읍 터미널길 5-22,2,2,우리넷,normal,45,20년1월,2024.09.30 08:57:59,581,SKT2,8530c28ffffffff,9,양호,9,교체불필요,-,,,
310,SKM,01227587759,SAJ03,36.5677,128.1789,77.58,경북 상주시 함창읍 함창시장1길 37,1,2,우리넷,normal,0,20년1월,2024.09.30 08:57:58,808,SKT1,8530ee4bfffffff,9,양호,,,-,,,
311,SKM,01227587763,GDG03,35.1521,126.9305,64.26,광주 동구 필문대로 212,5,5,우리넷,normal,0,20년1월,2024.09.30 08:57:58,1208,SKT1,8530c637fffffff,17,양호,4,교체권장,-,,,
312,FSM,01227587764,YODC1,36.2357,127.7229,104.09,충북 영동군 심천면 심천로 74,2,2,우리넷,normal,45,21년8월,2024.09.30 08:57:58,6988,소방청,8530c5d7fffffff,3,부족,7,교체불필요,-,,,
313,SKM,01227587765,PSH09,35.0805,128.9703,0.98,부산 사하구 장림번영로 46,1,5,우리넷,disc.,45,20년5월,2023.07.11 15:42:41,2957,대리점,-,,,,,-,,,
314,SKM,01227587767,KYS0D,35.9159,128.8213,56.03,경북 경산시 하양읍 하양로27길 4-7,3,4,우리넷,normal,0,20년1월,2024.09.30 08:57:58,347,SKT1,8530c197fffffff,10,양호,10,교체불필요,-,,,
315,SKM,01227587771,KYS09,35.9116,128.816,51.49,경북 경산시 하양읍 하양로 69,5,5,우리넷,normal,0,20년1월,2024.09.30 08:57:58,327,SKT1,8530c197fffffff,10,양호,7,교체불필요,-,,,
316,SKM,01227587772,DNG01,35.8354,128.6002,92.05,대구 남구 효성로 20,4,4,우리넷,normal,45,20년1월,2024.09.30 08:57:58,1983,SKT1,8530c193fffffff,81,초과밀,7,교체불필요,-,,,
317,SKM,01227587775,CHA17,35.1021,128.811,16.22,경남 창원시 진해구 용원로7번길 18,1,4,우리넷,disc.,45,20년5월,2020.11.03 09:34:31,3001,대리점,-,,,,,-,,,
318,FSM,01227587777,YODBZ,36.1527,127.9154,227.58,충북 영동군 상촌면 민주지산로 3061,2,2,우리넷,normal,45,21년8월,2024.09.30 08:57:58,5307,소방청,8530c513fffffff,2,부족,8,교체불필요,-,,,
319,SKM,01227587778,KIC03,36.128,128.1153,66.93,경북 김천시 평화장미길 56,2,2,우리넷,normal,45,20년1월,2024.09.30 08:57:58,1311,SKT2,8530c503fffffff,11,양호,,,-,,,
320,SKM,01227587779,GUM0I,36.1117,128.3395,53.14,경북 구미시 신시로 44,1,1,우리넷,disc.,45,20년5월,2021.07.03 10:30:10,2858,대리점,-,,,,,-,,,
321,SKM,01227587780,DDK0F,35.859,128.4644,20.61,대구 달성군 다사읍 달구벌대로 863,1,10,우리넷,normal,45,20년5월,2024.09.30 08:57:58,3099,대리점,8530c567fffffff,17,양호,10,교체불필요,-,,,
322,FSM,01227587781,BOE0A,36.477,127.7221,154.25,충북 보은군 보은읍 남부로 4415,1,2,우리넷,normal,45,22년2월,2024.09.30 08:57:58,7347,소방청,8530e367fffffff,3,부족,,,-,,,
323,SKM,01227587782,CHI06,36.0547,128.3434,55.18,경북 칠곡군 북삼읍 율리 571-21,1,1,우리넷,normal,0,20년1월,2024.09.30 08:57:58,1251,SKT1,8530c53bfffffff,20,양호,10,교체불필요,-,,,
324,SKM,01227587783,ANY1W,37.3982,126.9244,28.22,경기 안양시 만안구 장내로150번길 3,4,9,우리넷,normal,45,22년 하반기 이후,2024.09.30 08:57:59,7372,SKT1,8530e037fffffff,69,초과밀,,,-,,,
325,SKM,01227587785,ULJ04,36.6782,129.4404,8.09,경북 울진군 후포면 삼율로 7-11,1,2,우리넷,normal,0,20년1월,2024.09.30 08:57:58,267,SKT1,8530eaaffffffff,4,부족,9,교체불필요,-,,,
326,SKM,01227587786,POH0G,36.2031,129.3384,54.87,경북 포항시 북구 청하면 비학로 2098-24,1,1,우리넷,normal,0,20년1월,2024.09.30 08:57:58,1893,SKT1,8530ea77fffffff,4,부족,10,교체불필요,-,,,
327,SKM,01227587787,KIH0I,35.2344,128.8659,4.66,경남 김해시 내외로 80,1,10,우리넷,normal,45,20년5월,2024.09.30 08:57:58,3062,대리점,8530c17bfffffff,33,과밀,8,교체불필요,-,,,
328,SKM,01227587792,ULJ02,37.0128,129.4094,69.67,경북 울진군 울진읍 울진북로 788-38,1,1,우리넷,disc.,0,20년1월,2024.07.01 13:27:46,244,SKT1,-,,,,,-,,,
329,SKM,01227587794,GJE08,34.8892,128.621,1.06,경남 거제시 서문로5길 6,1,5,우리넷,disc.,45,20년5월,2024.04.02 20:36:13,2967,대리점,-,,,,,-,,,
330,SKM,01227587798,KYS06,35.7912,128.8412,68.42,경북 경산시 남산면 설총로 577,2,2,우리넷,normal,0,20년1월,2024.09.30 08:57:58,316,SKT1,8530c187fffffff,5,부족,7,교체불필요,-,,,
331,FSM,01227587801,NAMC7,34.7719,127.8865,32.56,경남 남해군 남면 남서대로 788-10,1,2,우리넷,normal,45,21년8월,2024.09.30 08:57:58,7040,소방청,8530c3d3fffffff,11,양호,10,교체불필요,-,,,
332,SKM,01227587802,UNG0G,35.5325,129.3096,10.23,울산 남구 삼산로 16,1,5,우리넷,disc.,45,20년5월,2022.03.03 09:43:50,2971,대리점,-,,,,,-,,,
333,FSM,01227587803,KWY0O,34.986,127.7469,2.53,전남 광양시 진월면 용소길 2,1,2,우리넷,disc.,45,21년8월,0,6467,소방청,-,,,,,-,,,
334,SKM,01227587804,UNG0D,35.531,129.3073,7.4,울산 남구 대공원로 241,4,6,우리넷,disc.,45,20년5월,2023.07.04 11:35:14,2706,대리점,-,,,,,-,,,
335,FSM,01227587806,GOS30,35.0588,128.3666,8.38,경남 고성군 회화면 영회로 2211,1,2,우리넷,disc.,0,21년8월,0,5308,소방청,-,,,,,-,,,
336,SKM,01227587812,DDS0R,35.8093,128.5127,26.6,대구 달서구 비슬로 2720,1,6,우리넷,disc.,45,20년5월,0,2838,대리점,-,,,,,-,,,
337,SKM,01227587813,KYS05,35.7558,128.7378,110.19,경북 경산시 남천면 연화길 71,1,1,우리넷,normal,45,20년1월,2024.09.30 08:57:58,315,SKT1,8530c183fffffff,24,과밀,10,교체불필요,-,,,
338,SKM,01227587814,JEC0R,36.9018,128.2392,269.09,충북 제천시 수산면 대전리 산 6,1,1,우리넷,disc.,45,20년1월,2024.04.25 03:12:44,2281,SKT1,-,,,,,-,,,
339,SKM,01227587815,JJJ09,33.4975,126.5545,93.35,제주 제주시 장수물길 114,1,1,우리넷,normal,0,20년1월,2024.09.30 08:57:58,1266,SKT1,8530d1cffffffff,31,과밀,8,교체불필요,-,,,
340,SKM,01227587817,EUI01,36.3679,128.6855,92.84,경북 의성군 의성읍 행화길 19,1,1,우리넷,normal,0,20년1월,2024.09.30 08:57:58,308,SKT2,8530eadbfffffff,9,양호,5,교체검토,-,,,
341,SKM,01227587818,JJJ08,33.4975,126.5545,93.35,제주 제주시 장수물길 114,1,1,우리넷,normal,45,20년1월,2024.09.30 08:57:58,1264,SKT1,8530d1cffffffff,31,과밀,9,교체불필요,-,,,
342,SKM,01227587820,DSS05,35.8585,128.6361,55.5,대구 수성구 달구벌대로 2500,5,5,우리넷,disc.,0,20년1월,2024.09.19 12:55:01,287,SKT1,-,,,,,-,,,
343,SKM,01227587821,JJJ0E,33.4902,126.518,76.29,제주 제주시 오남로6길 30,1,4,우리넷,disc.,0,20년1월,2023.12.18 11:31:54,1988,SKT1,-,,,,,-,,,
344,SKM,01227587822,KYU06,35.8601,129.2683,121.73,경북 경주시 보문로 182-29,8,8,우리넷,normal,0,20년1월,2024.09.30 08:57:58,310,SKT1,8530c1b7fffffff,13,양호,10,교체불필요,-,,,
345,FSM,01227587824,HADB3,34.9779,127.7955,3.67,경남 하동군 금성면 금성로 15,1,4,우리넷,disc.,0,21년8월,2024.05.29 19:39:48,5309,소방청,-,,,,,-,,,
346,SKM,01227587827,YEC02,36.5768,128.4741,102.48,경북 예천군 호명읍 행복7길 25-5,2,2,우리넷,normal,45,20년1월,2024.09.30 08:57:58,1570,SKT2,8530ee6bfffffff,7,양호,10,교체불필요,-,,,
347,SKM,01227587834,KWY01,34.9785,127.5834,17.02,전남 광양시 광양읍 칠성1길 55-9,3,4,우리넷,normal,0,20년1월,2024.09.30 08:57:58,431,SKT1,8530c047fffffff,2,부족,6,관찰필요,-,,,
348,SKM,01227587841,KYS02,35.8174,128.7524,76.87,경북 경산시 장산로 258,3,5,우리넷,normal,0,20년1월,2024.09.30 08:57:58,291,SKT1,8530c183fffffff,24,과밀,10,교체불필요,-,,,
349,FSM,01227587843,YUS1C,34.5127,127.7647,12.81,전남 여수시 남면 금오서부로 21,1,2,우리넷,normal,0,21년8월,2024.09.30 08:57:58,6198,소방청,8530c237fffffff,6,양호,10,교체불필요,-,,,
350,SKM,01227587844,GPG05,35.2101,126.8803,46.14,광주 북구 양산로 54,3,4,우리넷,normal,0,20년1월,2024.09.30 08:57:58,1237,SKT1,8530c6affffffff,54,초과밀,6,관찰필요,-,,,
351,SKM,01227587846,DSS01,35.8406,128.6107,62.11,대구 수성구 청수로 24,4,8,우리넷,normal,45,20년1월,2024.09.30 08:57:58,225,SKT1,8530c193fffffff,81,초과밀,7,교체불필요,-,,,
352,SKM,01227587847,GPG04,35.1692,126.9328,58.91,광주 북구 군왕로 90,2,5,우리넷,normal,0,20년1월,2024.09.30 08:57:58,1183,SKT1,8530c6affffffff,54,초과밀,9,교체불필요,-,,,
353,SKM,01227587848,JJJ04,33.4227,126.4919,547.31,제주 제주시 노형동 산 14-6,1,1,우리넷,disc.,0,20년1월,2023.09.11 12:33:20,1223,SKT1,-,,,,,-,,,
354,SKM,01227587849,DSS02,35.8406,128.6107,62.11,대구 수성구 청수로 24,7,8,우리넷,normal,0,20년1월,2024.09.30 08:57:58,226,SKT2,8530c193fffffff,81,초과밀,9,교체불필요,-,,,
355,SKM,01227587851,DDK04,35.7742,128.4238,26.65,대구 달성군 논공읍 금강로1길 22-9,3,3,우리넷,normal,45,20년1월,2024.09.30 08:57:58,258,SKT2,8530c56ffffffff,4,부족,10,교체불필요,-,,,
356,KSM,01227587852,JJJ2M,33.4305,126.5463,523.49,제주 제주시 산록북로 593-40,1,1,우리넷,normal,0,22년2월,2024.09.30 08:57:59,7328,기상청관측소,8530d1cffffffff,31,과밀,10,교체불필요,2,통품 불안정,,
357,FSM,01227587854,KOH1A,34.5816,127.256,25.17,전남 고흥군 풍양면 고흥로 1330,1,3,우리넷,disc.,45,21년8월,2024.01.19 13:01:15,6666,소방청,-,,,,,-,,,
358,SKM,01227587855,MUA02,34.9796,126.4546,63.43,전남 무안군 무안읍 교촌리 산 60-13,1,1,우리넷,normal,0,20년1월,2024.09.30 08:57:59,1023,SKT1,8530c603fffffff,9,양호,9,교체불필요,-,,,
359,SKM,01227587856,CHD01,35.6451,128.7405,76.99,경북 청도군 청도읍 청화로 130,4,4,우리넷,normal,0,20년1월,2024.09.30 08:57:58,286,SKT1,8530c113fffffff,8,양호,7,교체불필요,-,,,
360,SKM,01227587857,UPG09,35.6302,129.3405,28.93,울산 북구 아진로 76,1,6,우리넷,disc.,0,20년5월,2024.08.20 07:20:58,3148,대리점,-,,,,,-,,,
361,SKM,01227587859,KWJ06,37.3959,127.2383,60,경기 광주시 순암로 106-29,4,4,우리넷,normal,45,20년1월,2024.09.30 08:57:58,1336,SKT1,8530e153fffffff,23,과밀,,,-,,,
362,SKM,01227587861,PKS09,35.0983,128.9205,0.95,부산 강서구 명지국제8로 251,1,7,우리넷,disc.,45,20년5월,2023.01.09 12:11:48,2948,대리점,-,,,,,-,,,
363,SKM,01227587862,MOK02,34.8021,126.4054,29.43,전남 목포시 이로로34번길 16-1,1,1,우리넷,normal,0,20년1월,2024.09.30 08:57:58,944,SKT1,8530c647fffffff,24,과밀,4,교체권장,-,,,
364,SKM,01227587864,PHW0U,35.2255,129.1486,30.26,부산 해운대구 아랫반송로21번길 8,1,4,우리넷,normal,45,20년5월,2024.09.30 08:57:58,2693,대리점,8530c167fffffff,18,양호,9,교체불필요,-,,,
365,SKM,01227587866,HAN05,37.4973,127.2341,99.74,경기 하남시 하남대로244번길 15-36,1,2,우리넷,normal,0,20년1월,2024.09.30 08:57:58,1191,SKT1,8530e1cffffffff,43,과밀,,,-,,,
366,SKM,01227587869,DSS06,35.8546,128.6152,51.88,대구 수성구 명덕로 411,8,10,우리넷,normal,0,20년1월,2024.09.30 08:57:58,293,SKT1,8530c193fffffff,81,초과밀,10,교체불필요,-,,,
367,SKM,01227587871,JAH01,34.6772,126.9196,31.36,전남 장흥군 장흥읍 남부관광로 92,1,1,우리넷,normal,45,20년1월,2024.09.30 08:57:58,710,SKT2,8530c29bfffffff,8,양호,7,교체불필요,-,,,
368,FSM,01227587873,YUS1D,34.5127,127.7647,12.81,전남 여수시 남면 금오서부로 21,1,2,우리넷,normal,0,21년8월,2024.09.30 08:57:59,6199,소방청,8530c237fffffff,6,양호,9,교체불필요,-,,,
369,SKM,01227587878,KOH03,34.5549,127.3861,32.75,전남 고흥군 포두면 우주로 1411-10,1,1,우리넷,normal,0,20년1월,2024.09.30 08:57:58,568,SKT1,8530c217fffffff,6,양호,10,교체불필요,-,,,
370,SKM,01227587880,JSP07,33.253,126.5388,119.2,제주 서귀포시 일주동로 8909,1,2,우리넷,normal,0,20년1월,2024.09.30 08:57:58,1403,SKT1,8530d143fffffff,18,양호,9,교체불필요,-,,,
371,SKM,01227587881,DDH07,35.8751,128.6238,54.82,대구 동구 장등로 86,6,12,우리넷,normal,45,20년1월,2024.09.30 08:57:58,279,SKT1,8530c193fffffff,81,초과밀,7,교체불필요,-,,,
372,SKM,01227587882,BUC09,37.5048,126.7953,26,경기 부천시 원미구 원미로 254,3,5,우리넷,normal,0,20년1월,2024.09.30 08:57:58,1197,SKT2,8530e0affffffff,83,초과밀,10,교체불필요,-,,,
373,POM,01227587885,JJU3B,35.8615,127.1509,57.08,전북 전주시 덕진구 호성3길 10,1,3,우리넷,normal,45,21년8월,2024.09.30 08:57:58,4949,우정사업본부,8530c43bfffffff,34,과밀,,,-,,https://www.dropbox.com/scl/fi/jka2q0ts3xs9oidx8xyu8/01227587885_1.jpg?rlkey=sbmqxl2d9863rilnnek9ldumz&dl=0,https://www.dropbox.com/scl/fi/qexp400nggpwa6jzmba9c/01227587885_2.jpg?rlkey=10k4paemvjor3cpmcbsmi9apk&dl=0
374,SKM,01227587886,DPG01,35.9467,128.5495,51.96,대구 북구 관음중앙로33길 3-32,1,3,우리넷,normal,0,20년1월,2024.09.30 08:57:58,212,SKT1,8530c52bfffffff,11,양호,9,교체불필요,-,,,
375,SKM,01227587887,GSG07,35.1509,126.8662,45.42,광주 서구 상무대로956번길 6,4,8,우리넷,normal,0,20년1월,2024.09.30 08:57:58,1241,SKT1,8530c633fffffff,30,과밀,10,교체불필요,-,,,
376,POM,01227587889,HADAT,34.949,127.7831,19.9,경남 하동군 금성면 금성로 515,1,1,우리넷,disc.,0,21년8월,2023.10.24 12:18:18,4341,우정사업본부,-,,,,,-,,,
377,SKM,01227587891,JJJ0B,33.5093,126.5355,52.38,제주 제주시 삼성로16길 15,2,2,우리넷,normal,0,20년1월,2024.09.30 08:57:58,1282,SKT1,8530d1cffffffff,31,과밀,10,교체불필요,-,,,
378,SKM,01227587893,JAS03,35.3656,126.8082,124.18,전남 장성군 장성읍 용강길 35-8,1,1,우리넷,disc.,0,20년1월,2023.04.21 08:15:02,1363,SKT1,-,,,,,-,,,
379,FSM,01227587895,NAJB0,34.9685,126.6714,17.41,전남 나주시 왕곡면 나주서부로 378,2,1,우리넷,normal,0,21년8월,2024.09.30 08:57:59,6472,소방청,8530c60ffffffff,7,양호,10,교체불필요,-,,,
380,SKM,01227587897,YAM03,34.745,126.4702,16.7,전남 영암군 삼호읍 삼호중앙로 178,3,4,우리넷,normal,0,20년1월,2024.09.30 08:57:58,1085,SKT1,8530c67bfffffff,5,부족,10,교체불필요,-,,,
381,SKM,01227587900,OSA08,37.1611,127.0336,56.11,경기 오산시 가장로 490,2,5,우리넷,normal,45,20년1월,2024.09.30 08:57:58,1056,SKT2,8530e02ffffffff,46,과밀,10,교체불필요,-,,,
382,SKM,01227587901,GDG04,35.1464,126.9182,59.48,광주 동구 서석로 42,7,8,우리넷,normal,0,20년1월,2024.09.30 08:57:58,1233,SKT1,8530c637fffffff,17,양호,10,교체불필요,-,,,
383,SKM,01227587902,JJJ0C,33.3949,126.2476,12.94,제주 제주시 한림읍 명재로 6,1,2,우리넷,normal,0,20년1월,2024.09.30 08:57:58,1562,SKT1,8530d037fffffff,6,양호,8,교체불필요,-,,,
384,SKM,01227587903,UJG08,35.5544,129.3214,4.81,울산 중구 시계탑거리 20,1,9,우리넷,normal,0,20년5월,2024.09.30 08:57:58,3106,대리점,8530c137fffffff,23,과밀,10,교체불필요,-,,,
385,FSM,01227587904,CNY0M,35.5779,128.3883,19.42,경남 창녕군 이방면 뒷골길 5,1,2,우리넷,normal,0,21년8월,2024.09.30 08:57:58,7193,소방청,8530c1c3fffffff,4,부족,10,교체불필요,-,,,
386,SKM,01227587907,JJJ03,33.4607,126.4137,117.6,제주 제주시 애월읍 고성리 1355-4,1,3,우리넷,normal,0,20년1월,2024.09.30 08:57:58,1211,SKT1,8530d1cbfffffff,12,양호,10,교체불필요,-,,,
387,SKM,01227587908,HNA03,34.57,126.5986,38.11,전남 해남군 해남읍 홍교로 16,4,4,우리넷,normal,0,20년1월,2024.09.30 08:57:58,802,SKT1,8530c66bfffffff,7,양호,8,교체불필요,-,,,
388,SKM,01227587910,PGJ07,35.2151,129.103,24.76,부산 금정구 서동로149번길 3,1,2,우리넷,disc.,45,20년5월,2021.06.07 12:12:44,2695,대리점,-,,,,,-,,,
389,SKM,01227587911,SUN04,34.9342,127.4898,15.5,전남 순천시 우석로 60,3,4,우리넷,normal,0,20년1월,2024.09.30 08:57:58,387,SKT1,8530c04ffffffff,23,과밀,,,-,,,
390,SKM,01227587912,DDK0C,35.7797,128.4312,36.59,대구 달성군 옥포읍 시저로 2,4,4,우리넷,disc.,0,20년1월,2023.07.11 14:08:09,885,SKT1,-,,,,,-,,,
391,SKM,01227587913,POH0D,36.0823,129.3915,15.75,경북 포항시 북구 장성로 69-9,2,3,우리넷,normal,45,20년1월,2024.09.30 08:57:58,1287,SKT2,8530ea63fffffff,20,양호,2,교체시급,-,,,
392,SKM,01227587915,SUW0N,37.2409,126.971,25.38,경기 수원시 권선구 오목천로 79,3,4,우리넷,normal,0,20년1월,2024.09.30 08:57:58,1487,SKT1,8530e023fffffff,31,과밀,,,-,,,
393,SKM,01227587916,NYJ03,37.6577,127.1763,37.54,경기 남양주시 진건읍 사릉로 438,4,5,우리넷,normal,0,20년1월,2024.09.30 08:57:58,746,SKT1,8530e1c7fffffff,15,양호,10,교체불필요,-,,,
394,FSM,01227587917,YUS1E,34.7599,127.6651,4.3,전남 여수시 망마로 20,1,3,우리넷,normal,45,21년8월,2024.09.30 08:57:58,6473,소방청,8530c2a7fffffff,29,과밀,10,교체불필요,-,,,
395,SKM,01227587920,POH0C,35.9942,129.4045,9.56,경북 포항시 남구 정몽주로 888,2,2,우리넷,normal,45,20년1월,2024.09.30 08:57:58,1280,SKT2,8530ea6bfffffff,15,양호,10,교체불필요,-,,,
396,SKM,01227587922,CHA18,35.2373,128.5821,23.87,경남 창원시 마산회원구 3·15대로 732,1,7,우리넷,disc.,45,20년5월,2021.11.23 19:18:50,3097,대리점,-,,,,,-,,,
397,SKM,01227587926,JID04,34.4971,126.2603,284.62,전남 진도군 진도읍 동외4길 67-377,1,1,우리넷,normal,0,20년1월,2024.09.30 08:57:58,1192,SKT1,8530d5b3fffffff,8,양호,10,교체불필요,-,,,
398,SKM,01227587927,NAJ05,35.0187,126.7119,27.84,전남 나주시 왕건길 18,1,1,우리넷,normal,0,20년1월,2024.09.30 08:57:58,1270,SKT2,8530c607fffffff,10,양호,,,-,,,
399,SKM,01227587932,DPG14,35.9103,128.6144,29.59,대구 북구 유통단지로 115,6,6,우리넷,normal,0,20년4월,2024.09.30 08:57:58,2331,SKT1,8530c193fffffff,81,초과밀,8,교체불필요,-,,,
400,SKM,01227587933,ICH06,37.2934,127.4193,97.59,경기 이천시 경충대로2921번길 12-7,2,2,우리넷,normal,0,20년1월,2024.09.30 08:57:58,842,SKT1,8530e147fffffff,8,양호,7,교체불필요,-,,,
401,SKM,01227587934,JSP08,33.2842,126.2994,122.8,제주 서귀포시 안덕면 서광리 2085-2,2,3,우리넷,normal,45,20년1월,2024.09.30 08:57:59,1563,SKT1,8530d027fffffff,3,부족,10,교체불필요,-,,,
402,SKM,01227587936,GUN06,37.3606,126.9326,52.19,경기 군포시 산본로 339,13,13,우리넷,normal,0,20년1월,2024.09.30 08:57:58,1532,SKT2,8530e037fffffff,69,초과밀,7,교체불필요,-,,,
403,SKM,01227587942,KYU0F,35.7115,129.3193,75.78,경북 경주시 외동읍 순금2길 11,2,2,우리넷,normal,0,20년1월,2024.09.30 08:57:58,1572,SKT2,8530c1affffffff,6,양호,7,교체불필요,-,,,
404,SKM,01227587943,JJJ2K,33.4861,126.4317,32,제주 제주시 우정로15길 5,3,6,우리넷,disc.,0,22년2월,2023.10.15 04:46:13,7325,SKT1,-,,,,,-,,,
405,SKM,01227587944,KAN01,34.645,126.7872,16.3,전남 강진군 군동면 군동계산길 9,1,2,우리넷,normal,0,20년1월,2024.09.30 08:57:58,810,SKT1,8530c66ffffffff,7,양호,9,교체불필요,-,,,
406,SKM,01227587945,CHA12,35.2411,128.585,28.7,경남 창원시 마산회원구 3·15대로 782,1,3,우리넷,disc.,45,20년5월,0,2882,대리점,-,,,,,-,,,
407,SKM,01227587946,JSP06,33.2667,126.4196,184.88,제주 서귀포시 색달로181번길 66,1,2,우리넷,normal,0,20년1월,2024.09.30 08:57:58,1391,SKT2,8530d15bfffffff,10,양호,8,교체불필요,-,,,
408,SKM,01227587949,JJJ07,33.5232,126.8482,17.86,제주 제주시 구좌읍 평대12길 20,1,1,우리넷,normal,0,20년1월,2024.09.30 08:57:58,1248,SKT1,8530d103fffffff,2,부족,10,교체불필요,-,,,
409,SKM,01227587950,KYU0C,35.8445,129.2333,57.94,경북 경주시 알천북로 327,2,2,우리넷,normal,0,20년1월,2024.09.30 08:57:58,1278,SKT2,8530c1b7fffffff,13,양호,7,교체불필요,-,,,
410,FSM,01227587951,NAJB9,34.9685,126.6714,17,전남 나주시 왕곡면 나주서부로 378,1,1,우리넷,normal,0,22년 하반기 이후,2024.09.30 08:57:58,7657,소방청,8530c60ffffffff,7,양호,,,-,,,
411,SKM,01227587952,SAC06,34.9376,128.0865,20.1,경남 사천시 신항로 116,1,4,우리넷,disc.,0,20년5월,2020.12.23 18:17:46,3150,대리점,-,,,,,-,,,
412,SKM,01227587953,GPG03,35.1724,126.8611,23.71,광주 북구 하남대로 625,3,5,우리넷,normal,0,20년1월,2024.09.30 08:57:58,739,SKT1,8530c6affffffff,54,초과밀,6,관찰필요,-,,,
413,SKM,01227587954,CHA16,35.156,128.6982,12.42,경남 창원시 진해구 진해대로776번길 29,1,3,우리넷,disc.,0,20년5월,2024.07.21 21:21:43,2979,대리점,-,,,,,-,,,
414,SKM,01227587960,MOK01,34.8119,126.3964,15.99,전남 목포시 양을로242번길 2,4,4,우리넷,normal,0,20년1월,2024.09.30 08:57:58,938,SKT1,8530c647fffffff,24,과밀,8,교체불필요,-,,,
415,SKM,01227587961,GSG03,35.1484,126.8502,22.44,광주 서구 상무평화로 103,12,13,우리넷,disc.,45,20년1월,2022.04.18 14:51:38,1058,SKT2,-,,,,,-,,,
416,SKM,01227587967,DDK09,35.8716,128.4962,30.29,대구 달성군 다사읍 서재본길 5,1,3,우리넷,normal,0,20년1월,2024.09.30 08:57:58,875,SKT1,8530c567fffffff,17,양호,10,교체불필요,-,,,
417,SKM,01227587973,POH0E,36.0823,129.3915,15.75,경북 포항시 북구 장성로 69-9,3,3,우리넷,normal,45,20년1월,2024.09.30 08:57:58,1289,SKT2,8530ea63fffffff,20,양호,5,교체검토,-,,,
418,SKM,01227587974,DAJ03,36.8897,126.6388,34.29,충남 당진시 무수동2길 25-6,2,2,우리넷,normal,0,20년1월,2024.09.30 08:57:58,484,SKT2,8530e06bfffffff,12,양호,4,교체권장,-,,,
419,SKM,01227587976,KWY06,34.9367,127.7035,4.27,전남 광양시 눈소1길 3-3,2,3,우리넷,normal,0,20년1월,2024.09.30 08:57:58,1445,SKT2,8530c07bfffffff,17,양호,9,교체불필요,-,,,
420,SKM,01227587980,JID01,34.4842,126.2642,13.52,전남 진도군 진도읍 철마길 4,3,4,우리넷,normal,0,20년1월,2024.09.30 08:57:58,805,SKT1,8530d5b3fffffff,8,양호,9,교체불필요,-,,,
421,SKM,01227587985,DDS0A,35.8402,128.5451,28.52,대구 달서구 당산로 32,5,5,우리넷,normal,0,20년1월,2024.09.30 08:57:58,876,SKT1,8530c193fffffff,81,초과밀,10,교체불필요,-,,,
422,FSM,01227587989,KOH1C,34.4633,127.4588,5.48,전남 고흥군 봉래면 나로도항길 13,1,2,우리넷,normal,45,21년8월,2024.09.30 08:57:58,6802,소방청,8530c207fffffff,4,부족,8,교체불필요,-,,,
423,SKM,01227587990,HAM04,35.1964,126.566,296.1,전남 함평군 해보면 금계리 산 37,1,1,우리넷,normal,0,20년1월,2024.09.30 08:57:58,1290,SKT1,8530c617fffffff,5,부족,10,교체불필요,-,,,
424,FSM,01227587992,NAJAX,34.9626,126.7907,23,전남 나주시 봉황면 봉황로 831,1,2,우리넷,normal,45,21년8월,2024.09.30 08:57:58,5315,소방청,8530c63bfffffff,7,양호,9,교체불필요,-,,,
425,SKM,01227587994,JEC0K,37.2077,128.2418,344.38,충북 제천시 송학면 송학주천로 543,1,1,우리넷,normal,0,20년1월,2024.09.30 08:57:58,2204,SKT1,8530ee8ffffffff,10,양호,7,교체불필요,-,,,
426,SKM,01227587997,SJG1X,37.5665,126.9851,25.21,서울 중구 을지로 65,18,40,우리넷,normal,0,20년4월,2024.09.30 08:57:58,2616,SKT3,-,,,,,-,,,
427,FSM,01227587998,GOS31,35.11,128.2381,52.36,경남 고성군 영오면 문산로 14-10,1,2,우리넷,normal,45,21년8월,2024.09.30 08:57:58,5317,소방청,8530c02ffffffff,8,양호,8,교체불필요,-,,,
428,SKM,01227587999,DSS08,35.8414,128.7008,51.13,대구 수성구 달구벌대로 3144,2,3,우리넷,normal,0,20년1월,2024.09.30 08:57:58,1553,SKT1,8530c183fffffff,24,과밀,8,교체불필요,-,,,
429,FSM,01227588000,YUS1K,34.7186,127.7502,10.57,전남 여수시 돌산읍 강남로 34,1,2,우리넷,normal,45,21년8월,2024.09.30 08:57:58,6806,소방청,8530c2a7fffffff,29,과밀,10,교체불필요,-,,,
430,FSM,01227588001,YUS1N,34.7548,127.7267,17.87,전남 여수시 좌수영로 162,1,2,우리넷,normal,0,21년8월,2024.09.30 08:57:58,6809,소방청,8530c2a7fffffff,29,과밀,7,교체불필요,-,,,
431,SKM,01227588005,JJJ0A,33.5093,126.5355,52.38,제주 제주시 삼성로16길 15,1,2,우리넷,normal,0,20년1월,2024.09.30 08:57:58,1281,SKT2,8530d1cffffffff,31,과밀,7,교체불필요,-,,,
432,FSM,01227588006,BOSBU,34.6727,127.0926,8.41,전남 보성군 회천면 우암1길 79,2,2,우리넷,normal,45,21년8월,2024.09.30 08:57:58,6474,소방청,8530c283fffffff,4,부족,5,교체검토,-,,,
433,SKM,01227588014,GPG08,35.2037,126.898,52.63,광주 북구 설죽로 499,6,6,우리넷,normal,0,20년1월,2024.09.30 08:57:58,1984,SKT1,8530c6affffffff,54,초과밀,8,교체불필요,-,,,
434,SKM,01227588015,MOK05,34.8127,126.446,2.98,전남 목포시 정의로 26-2,2,2,우리넷,normal,0,20년1월,2024.09.30 08:57:58,1066,SKT2,8530c647fffffff,24,과밀,7,교체불필요,-,,,
435,SKM,01227588020,KUR03,35.2157,127.455,86.06,전남 구례군 구례읍 아양길 13,1,1,우리넷,normal,45,20년1월,2024.09.30 08:57:58,778,SKT2,8530c01bfffffff,4,부족,10,교체불필요,-,,,
436,SKM,01227588023,DSG06,35.8839,128.581,30.13,대구 서구 원대로 73,4,8,우리넷,normal,0,20년4월,2024.09.30 08:57:58,2319,SKT3,-,,,,,-,,,
437,SKM,01227588029,SKJ04,37.5712,127.0836,22.67,서울 광진구 답십리로 388,3,5,우리넷,normal,0,20년1월,2024.09.30 08:57:58,732,SKT1,8530e1c3fffffff,112,초과밀,9,교체불필요,-,,,
438,SKM,01227588031,GNG01,35.0816,126.8323,24.19,광주 남구 고싸움로 161,2,3,우리넷,normal,0,20년1월,2024.09.30 08:57:58,1158,SKT1,8530c633fffffff,30,과밀,9,교체불필요,-,,,
439,SKM,01227588033,SUN05,34.9537,127.4851,13.51,전남 순천시 별미길 18,9,9,우리넷,normal,0,20년1월,2024.09.30 08:57:58,390,SKT1,8530c04ffffffff,23,과밀,7,교체불필요,-,,,
440,SKM,01227588034,YAM01,34.8284,126.6937,24.91,전남 영암군 덕진면 예향로 1841-11,1,1,우리넷,disc.,0,20년1월,2020.12.18 16:35:32,788,SKT2,-,,,,,-,,,
441,SKM,01227588035,JID02,34.4408,126.3594,6.77,전남 진도군 고군면 고군용호길 42,3,2,우리넷,disc.,0,20년1월,2024.08.16 10:02:07,825,SKT1,-,,,,,-,,,
442,SKM,01227588038,KWY02,34.9655,127.5554,65.44,전남 광양시 광양읍 순광로 337,1,1,우리넷,normal,0,20년1월,2024.09.30 08:57:58,434,SKT1,8530c04ffffffff,23,과밀,10,교체불필요,-,,,
443,SKM,01227588040,MOK07,34.8041,126.3765,5,전남 목포시 청호로136번길 3,5,5,우리넷,disc.,0,20년1월,2024.02.16 10:02:58,1299,SKT2,-,,,,,-,,,
444,SKM,01227588043,GSG06,35.1247,126.871,67.1,광주 서구 풍암동 산 93-3,1,2,우리넷,normal,0,20년1월,2024.09.30 08:57:58,1166,SKT1,8530c633fffffff,30,과밀,10,교체불필요,-,,,
445,SKM,01227588045,YUS08,34.7576,127.7093,43.02,전남 여수시 문수로 147-1,3,3,우리넷,normal,0,20년1월,2024.09.30 08:57:58,638,SKT1,8530c2a7fffffff,29,과밀,9,교체불필요,-,,,
446,FSM,01227588046,YUS1O,34.7063,127.6112,1.52,전남 여수시 화양면 옥천로 20,1,1,우리넷,normal,0,21년8월,2024.09.30 08:57:58,6810,소방청,8530c2a3fffffff,3,부족,8,교체불필요,-,,,
447,SKM,01227588050,GGG0C,35.1402,126.8017,20.23,광주 광산구 송도로 308,2,7,우리넷,normal,0,20년1월,2024.09.30 08:57:58,525,SKT2,8530c633fffffff,30,과밀,10,교체불필요,-,,,
448,FSM,01227588052,GOK0C,35.1289,127.2536,59.52,전남 곡성군 석곡면 석곡로 22,1,1,우리넷,normal,45,21년8월,2024.09.30 08:57:58,5319,소방청,8530c053fffffff,4,부족,10,교체불필요,-,,,
449,SKM,01227588053,GGG02,35.192,126.8555,21.05,광주 광산구 북문대로420번길 150,2,3,우리넷,normal,0,20년1월,2024.09.30 08:57:58,379,SKT1,8530c6affffffff,54,초과밀,9,교체불필요,-,,,
450,SKM,01227588055,YUS07,34.8003,127.6546,12.33,전남 여수시 삼동로 35,1,2,우리넷,normal,0,20년1월,2024.09.30 08:57:58,505,SKT1,8530c2b7fffffff,3,부족,9,교체불필요,-,,,
451,SKM,01227588057,SUN0D,34.945,127.5018,4.4,전남 순천시 팔마로 126,5,6,우리넷,disc.,0,20년1월,2023.04.01 11:03:50,2284,SKT1,-,,,,,-,,,
452,FSM,01227588058,KWY0R,34.986,127.7469,2.53,전남 광양시 진월면 용소길 2,1,2,우리넷,normal,45,21년8월,2024.09.30 08:57:58,6475,소방청,8530c07bfffffff,17,양호,10,교체불필요,-,,,
453,FSM,01227588059,KWY0S,34.9366,127.7253,2.98,전남 광양시 희망길 12-12,1,3,우리넷,normal,45,21년8월,2024.09.30 08:57:59,6476,소방청,8530c07bfffffff,17,양호,10,교체불필요,-,,,
454,SKM,01227588060,KOH02,34.5291,127.1373,0.01,전남 고흥군 도양읍 녹동남촌1길 6-7,2,3,우리넷,normal,45,20년1월,2024.09.30 08:57:58,554,SKT1,8530c213fffffff,9,양호,7,교체불필요,-,,,
455,SKM,01227588061,SUN02,34.9567,127.5355,52.36,전남 순천시 왕궁중앙길 63,2,3,우리넷,normal,0,20년1월,2024.09.30 08:57:58,378,SKT1,8530c04ffffffff,23,과밀,10,교체불필요,-,,,
456,SKM,01227588065,YUS0B,34.7648,127.6643,14.3,전남 여수시 학동1길 16-4,1,2,우리넷,normal,0,20년1월,2024.09.30 08:57:58,1435,SKT2,8530c2a7fffffff,29,과밀,10,교체불필요,-,,,
457,FSM,01227588066,KOH0T,34.6451,127.2755,11.28,전남 고흥군 두원면 용산신송길 164,1,2,우리넷,normal,0,21년8월,2024.09.30 08:57:59,5320,소방청,8530c28ffffffff,9,양호,9,교체불필요,-,,,
458,FSM,01227588067,KOH0Z,34.5732,127.3442,7.25,전남 고흥군 포두면 후동2길 44,2,2,우리넷,normal,0,21년8월,2024.09.30 08:57:58,6477,소방청,8530c217fffffff,6,양호,10,교체불필요,-,,,
459,SKM,01227588074,GDG05,35.1613,126.9191,49.21,광주 동구 무등로 332,3,8,우리넷,normal,0,20년1월,2024.09.30 08:57:59,1392,SKT2,8530c6affffffff,54,초과밀,10,교체불필요,-,,,
460,SKM,01227588077,YUS02,34.6055,127.7878,2.41,전남 여수시 돌산읍 향일암로 362,1,1,우리넷,normal,0,20년1월,2024.09.30 08:57:58,392,SKT1,8530c3dbfffffff,3,부족,9,교체불필요,-,,,
461,SKM,01227588079,PTK04,36.9894,126.9276,23.76,경기 평택시 안중읍 안중로99번길 8,2,2,우리넷,normal,0,20년1월,2024.09.30 08:57:58,1041,SKT2,8530e067fffffff,8,양호,9,교체불필요,-,,,
462,SKM,01227588084,HNA02,34.5714,126.6028,41.62,전남 해남군 해남읍 중앙1로 82,4,4,우리넷,normal,0,20년1월,2024.09.30 08:57:58,793,SKT1,8530c66bfffffff,7,양호,9,교체불필요,-,,,
463,FSM,01227702837,KWY0T,34.9401,127.6977,9.35,전남 광양시 중마중앙로 109,1,1,우리넷,normal,0,21년8월,2024.09.30 08:57:58,6478,소방청,8530c07bfffffff,17,양호,10,교체불필요,-,,,
464,SKM,01227702919,YWO0G,37.2469,128.4307,304.27,강원 영월군 북면 문곡리 산 25,1,1,엔티모아,normal,45,20년1월,2024.09.30 08:57:58,2216,SKT1,8530eeabfffffff,15,양호,7,교체불필요,-,,,
465,FSM,01227711696,HMY0A,35.6292,127.8104,195.83,경남 함양군 안의면 금성길 19,2,2,우리넷,normal,0,21년8월,2024.09.30 08:57:58,7168,소방청,8530c0b3fffffff,9,양호,10,교체불필요,-,,,
466,FSM,01227712278,SAN0E,35.421,127.8733,115.12,경남 산청군 금서면 친환경로2631번길 10-33,1,3,우리넷,normal,45,21년8월,2024.09.30 08:57:58,7043,소방청,8530c0abfffffff,8,양호,10,교체불필요,-,,,
467,FSM,01227712345,BUA0R,35.6605,126.5312,14.96,전북 부안군 변산면 내변산로 46-1,1,2,우리넷,normal,45,21년8월,2024.09.30 08:57:58,6825,소방청,8530c453fffffff,7,양호,10,교체불필요,-,,,
468,FSM,01227712386,YON0Z,37.2788,127.1098,83.76,경기 용인시 기흥구 용구대로2152번길 34,1,3,우리넷,normal,0,21년8월,2024.09.30 08:57:58,6314,소방청,8530e15bfffffff,19,양호,6,관찰필요,-,,,
469,FSM,01227712451,BUC12,37.5114,126.8054,21.96,경기 부천시 오정구 여월로 62,1,2,우리넷,normal,45,21년8월,2024.09.30 08:57:59,5322,소방청,8530e0affffffff,83,초과밀,10,교체불필요,-,,,
470,SKM,01227713007,SUN09,34.955,127.4863,10.43,전남 순천시 연자로 20,4,9,우리넷,normal,0,20년1월,2024.09.30 08:57:58,1453,SKT2,8530c04ffffffff,23,과밀,9,교체불필요,-,,,
471,FSM,01227713156,BUA0P,35.62,126.4706,5.19,전북 부안군 변산면 격포항길 64-17,2,2,우리넷,normal,0,21년8월,2024.09.30 08:57:59,6823,소방청,8530c453fffffff,7,양호,9,교체불필요,-,,,
472,FSM,01227715953,KOC0I,35.4166,126.5616,52.35,전북 고창군 무장면 무장남북로 20-5,1,1,우리넷,normal,45,21년8월,2024.09.30 08:57:58,6479,소방청,8530c44bfffffff,8,양호,10,교체불필요,-,,,
473,SKM,01227716555,EWA02,37.3798,126.9755,78.16,경기 의왕시 계원대학로 35,3,15,우리넷,normal,0,20년1월,2024.09.30 08:57:58,895,SKT1,8530e037fffffff,69,초과밀,1,교체필수,-,,,
474,SKM,01227717464,SJG2G,37.5665,126.9851,29.21,서울 중구 을지로 65,-2,40,우리넷,normal,0,20년4월,2024.09.30 08:57:58,2635,SKT3,-,,,,,-,,,
475,SKM,01227720738,SJR53,37.5716,126.9768,28.75,서울 종로구 세종대로 지하 172,1,3,우리넷,normal,45,22년 하반기 이후,2024.09.30 08:57:58,7365,SKT1,8530e1dbfffffff,153,초과밀,,,-,,,
476,POM,01227721216,KIM0E,37.6899,126.601,14.7,경기 김포시 통진읍 조강로 42,1,2,엔티모아,normal,0,21년8월,2024.09.30 08:57:58,4883,우정사업본부,8530e0b3fffffff,7,양호,10,교체불필요,-,,,
477,FSM,01227721262,SAM1A,37.35,128.9426,658,강원 삼척시 하장면 백두대간로 2522,2,2,우리넷,normal,45,21년8월,2024.09.30 08:57:58,7003,소방청,8530e8c3fffffff,3,부족,,,-,,,
478,FSM,01227721263,KWY0U,34.9785,127.5736,15.53,전남 광양시 광양읍 서천변로 175,1,3,우리넷,normal,45,21년8월,2024.09.30 08:57:58,6480,소방청,8530c047fffffff,2,부족,10,교체불필요,-,,,
479,SKM,01227721278,SSM03,37.5653,126.9293,16.54,서울 서대문구 연희로 77-6,1,5,우리넷,normal,45,20년1월,2024.09.30 08:57:58,1142,SKT2,8530e1dbfffffff,153,초과밀,9,교체불필요,-,,,
480,FSM,01227721303,CHA2L,35.1417,128.4837,31.51,경남 창원시 마산합포구 진북면 산단1길 29-30,1,2,우리넷,disc.,45,21년8월,0,5323,소방청,-,,,,,-,,,
481,SKM,01227721327,YUS01,34.7685,127.6965,62.44,전남 여수시 좌수영로 491,2,4,우리넷,normal,0,20년1월,2024.09.30 08:57:58,357,SKT1,8530c2a7fffffff,29,과밀,9,교체불필요,-,,,
482,POM,01227721349,CHA2E,35.1454,128.7013,9.24,경남 창원시 진해구 충장로 493,1,2,엔티모아,disc.,0,21년8월,2024.04.03 09:07:33,5140,우정사업본부,-,,,,,-,,,
483,FSM,01227721372,YAPB8,37.4199,127.7655,118.14,경기 양평군 양동면 양서북로 80,1,2,우리넷,normal,45,21년8월,2024.09.30 08:57:58,7249,소방청,8530e177fffffff,4,부족,8,교체불필요,-,,,
484,POM,01227721389,BUYBW,36.3027,126.7044,112.64,충남 부여군 외산면 외산로 96,1,2,엔티모아,normal,0,21년8월,2024.09.30 08:57:58,5213,우정사업본부,8530e22ffffffff,9,양호,10,교체불필요,-,,,
485,SKM,01227721394,SDB04,37.6629,127.0358,26.53,서울 도봉구 방학로 148,4,5,우리넷,normal,0,20년1월,2024.09.30 08:57:59,1524,SKT1,8530e1c3fffffff,112,초과밀,10,교체불필요,-,,,
486,FSM,01227721404,WAS0S,35.375,129.1468,132.84,경남 양산시 내연4길 9,1,2,우리넷,normal,45,21년8월,2024.09.30 08:57:59,5324,소방청,8530c177fffffff,25,과밀,8,교체불필요,-,,,
487,FSM,01227721425,CHA2M,35.1981,128.5748,0,경남 창원시 마산합포구 제2부두로 55,1,3,우리넷,normal,0,21년8월,2024.09.30 08:57:57,5325,소방청,8530c143fffffff,37,과밀,9,교체불필요,-,,,
488,FSM,01227721442,CHD09,35.6482,128.7632,87.36,경북 청도군 청도읍 중앙로 192-34,1,3,우리넷,normal,45,21년8월,2024.09.30 08:57:58,5326,소방청,8530c113fffffff,8,양호,3,교체필요,-,,,
489,SKM,01227721464,DSG0E,35.8844,128.5812,30.36,대구 서구 원대로 73,4,6,우리넷,normal,0,20년4월,2024.09.30 08:57:58,2327,SKT3,-,,,,,-,,,
490,POM,01227721486,SUN0R,34.9468,127.4989,6.43,전남 순천시 역전길 43,1,3,엔티모아,normal,45,21년8월,2024.09.30 08:57:58,4719,우정사업본부,8530c04ffffffff,23,과밀,10,교체불필요,-,,,
491,SKM,01227721622,YAP04,37.4909,127.4776,30.46,경기 양평군 강상면 강남로899번길 23-6,2,2,우리넷,normal,0,20년1월,2024.09.30 08:57:58,1343,SKT2,8530e10bfffffff,8,양호,8,교체불필요,-,,,
492,SKM,01227721731,GUN04,37.3707,126.9433,35.94,경기 군포시 군포로 733,6,9,우리넷,normal,0,20년1월,2024.09.30 08:57:58,1476,SKT1,8530e037fffffff,69,초과밀,4,교체권장,-,,,
493,SKM,01227722260,GOY0B,37.6235,126.834,20.88,경기 고양시 덕양구 충장로 122,3,9,엔티모아,normal,0,20년1월,2024.09.30 08:57:58,1466,SKT1,8530e0a7fffffff,49,과밀,10,교체불필요,-,,,
494,SKM,01227722316,SJG28,37.5665,126.9851,25.21,서울 중구 을지로 65,7,40,우리넷,normal,0,20년4월,2024.09.30 08:57:58,2627,SKT3,-,,,,,-,,,
495,SKM,01227722346,SJG20,37.5665,126.9851,25.21,서울 중구 을지로 65,15,40,우리넷,normal,0,20년4월,2024.09.30 08:57:58,2619,SKT3,-,,,,,-,,,
496,SKM,01227723452,GGG0Z,35.162,126.8101,42.99,광주 광산구 무진대로 269,10,15,우리넷,normal,0,20년4월,2024.09.30 08:57:58,2512,SKT3,-,,,,,-,,,
497,SKM,01227723476,JSP01,33.2488,126.5695,52.69,제주 서귀포시 중정로 123,12,13,우리넷,normal,0,20년1월,2024.09.30 08:57:58,407,SKT1,8530d143fffffff,18,양호,,,-,,,
498,SKM,01227723518,GNG06,35.1276,126.9078,58.78,광주 남구 봉선1로 24,3,3,우리넷,normal,45,20년1월,2024.09.30 08:57:58,1273,SKT2,8530c633fffffff,30,과밀,10,교체불필요,-,,,
499,FSM,01227723525,GOK0E,35.2745,127.1375,84.15,전남 곡성군 옥과면 리문6길 29,1,2,우리넷,normal,45,21년8월,2024.09.30 08:57:58,7069,소방청,8530c0dbfffffff,6,양호,10,교체불필요,-,,,
500,SKM,01227723549,GPG01,35.1873,126.9081,45.05,광주 북구 서하로 253,2,2,우리넷,normal,0,20년1월,2024.09.30 08:57:58,468,SKT2,8530c6affffffff,54,초과밀,6,관찰필요,-,,,
501,SKM,01227723596,NAJ03,35.0364,126.8049,16.54,전남 나주시 산포면 마성1길 12,2,2,우리넷,normal,45,20년1월,2024.09.30 08:57:58,1057,SKT2,8530c63bfffffff,7,양호,10,교체불필요,-,,,
502,FSM,01227723636,NAJB1,35.0753,126.7311,14,전남 나주시 노안면 금산로 9,1,1,우리넷,normal,45,21년8월,2024.09.30 08:57:58,6481,소방청,8530c607fffffff,10,양호,10,교체불필요,-,,,
503,SKM,01227723653,KUR01,35.3097,127.4295,135.05,전남 구례군 산동면 상신길 30,1,1,우리넷,normal,0,20년1월,2024.09.30 08:57:58,430,SKT1,8530c0c7fffffff,5,부족,10,교체불필요,-,,,
504,SKM,01227723733,SJG12,37.5665,126.9851,25.21,서울 중구 을지로 65,31,40,우리넷,normal,0,20년4월,2024.09.30 08:57:58,2574,SKT3,-,,,,,-,,,
505,SKM,01227724303,HWS01,35.0545,126.9851,61.67,전남 화순군 화순읍 진각로 31-8,2,2,우리넷,normal,45,20년1월,2024.09.30 08:57:59,1310,SKT2,8530c623fffffff,7,양호,3,교체필요,-,,,
506,SKM,01227727556,JJJ01,33.4942,126.6799,154.01,제주 제주시 조천읍 와산리 873-1,1,1,우리넷,normal,0,20년1월,2024.09.30 08:57:58,432,SKT1,8530d11bfffffff,10,양호,10,교체불필요,-,,,
507,FSM,01227727929,KOI0B,36.871,127.8528,104.64,충북 괴산군 불정면 한불로 1602,2,2,우리넷,disc.,0,21년8월,0,7109,소방청,-,,,,,-,,,
508,SKM,01227727979,JJJ05,33.4917,126.5951,147.31,제주 제주시 봉개북1길 15,1,2,우리넷,normal,0,20년1월,2024.09.30 08:57:58,1230,SKT1,8530d1cffffffff,31,과밀,9,교체불필요,-,,,
509,SKM,01227727995,KOH05,34.61,127.2847,32.72,전남 고흥군 고흥읍 봉황길 11-8,5,6,우리넷,normal,45,20년1월,2024.09.30 08:57:58,1985,SKT1,8530c28ffffffff,9,양호,7,교체불필요,-,,,
510,SKM,01227728122,MOK06,34.8007,126.4162,13.42,전남 목포시 입암로4번길 3,2,2,우리넷,normal,0,20년1월,2024.09.30 08:57:58,1285,SKT2,8530c647fffffff,24,과밀,10,교체불필요,-,,,
511,SKM,01227728160,GDG06,35.1501,126.916,52.81,광주 동구 금남로 211,1,10,우리넷,normal,45,20년1월,2024.09.30 08:57:58,1412,SKT2,8530c637fffffff,17,양호,3,교체필요,-,,,
512,FSM,01227728172,YUS1P,34.7063,127.6112,1.52,전남 여수시 화양면 옥천로 20,1,1,우리넷,normal,45,21년8월,2024.09.30 08:57:58,6811,소방청,8530c2a3fffffff,3,부족,10,교체불필요,-,,,
513,FSM,01227728177,YUS1G,34.831,127.6145,2.95,전남 여수시 소라면 여순로 297,1,1,우리넷,disc.,45,21년8월,2024.08.19 10:45:22,6669,소방청,-,,,,,-,,,
514,SKM,01227728192,GSG08,35.1407,126.859,40.51,광주 서구 운천로 90,3,5,우리넷,normal,0,20년1월,2024.09.30 08:57:58,1247,SKT1,8530c633fffffff,30,과밀,10,교체불필요,-,,,
515,FSM,01227728210,NAMC8,34.7719,127.8865,32.56,경남 남해군 남면 남서대로 788-10,1,2,우리넷,normal,45,21년8월,2024.09.30 08:57:58,7041,소방청,8530c3d3fffffff,11,양호,10,교체불필요,-,,,
516,SKM,01227728213,KAN02,34.6375,126.7688,18.47,전남 강진군 강진읍 영랑로 19,4,5,우리넷,normal,0,20년1월,2024.09.30 08:57:58,820,SKT1,8530c66ffffffff,7,양호,9,교체불필요,-,,,
517,FSM,01227728217,NAMC9,34.8296,127.8927,18.57,경남 남해군 남해읍 스포츠로 81,1,3,우리넷,normal,45,21년8월,2024.09.30 08:57:59,7213,소방청,8530c3d3fffffff,11,양호,10,교체불필요,-,,,
518,SKM,01227728227,SMP07,37.5474,126.9248,18.86,서울 마포구 독막로 100,14,15,우리넷,normal,0,20년1월,2024.09.30 08:57:58,1082,SKT1,8530e1dbfffffff,153,초과밀,7,교체불필요,-,,,
519,FSM,01227728232,NAMCA,34.8296,127.8927,18.57,경남 남해군 남해읍 스포츠로 81,1,1,우리넷,normal,45,21년8월,2024.09.30 08:57:58,7214,소방청,8530c3d3fffffff,11,양호,10,교체불필요,-,,,
520,FSM,01227728244,KOH16,34.5128,127.3217,18.92,전남 고흥군 도화면 도화로 500,1,1,우리넷,normal,45,21년8월,2024.09.30 08:57:58,6662,소방청,8530c217fffffff,6,양호,7,교체불필요,-,,,
521,FSM,01227728251,KOH10,34.6451,127.2755,11.28,전남 고흥군 두원면 용산신송길 164,2,2,우리넷,normal,45,21년8월,2024.09.30 08:57:58,6482,소방청,8530c28ffffffff,9,양호,10,교체불필요,-,,,
522,SKM,01227728263,JAH02,34.6794,126.9084,26.44,전남 장흥군 장흥읍 건산로 31,2,6,우리넷,normal,0,20년1월,2024.09.30 08:57:58,831,SKT1,8530c29bfffffff,8,양호,9,교체불필요,-,,,
523,FSM,01227728277,MOK0W,34.8188,126.3777,10.12,전남 목포시 산정공단로 64,1,2,우리넷,normal,0,22년2월,2024.09.30 08:57:58,7345,소방청,8530c647fffffff,24,과밀,,,-,,,
524,SKM,01227728286,CHU03,37.0285,127.9188,87.36,충북 충주시 동량면 운교북길 23,2,2,우리넷,normal,0,20년1월,2024.09.30 08:57:58,325,SKT1,8530eec3fffffff,10,양호,9,교체불필요,-,,,
525,SKM,01227728323,WAD01,34.3668,126.7259,14.59,전남 완도군 완도읍 청해진로 1283,2,2,우리넷,normal,0,20년1월,2024.09.30 08:57:59,1464,SKT2,8530c2cbfffffff,6,양호,5,교체검토,-,,,
526,SKM,01227728328,SJR05,37.5767,126.9858,38.31,서울 종로구 율곡로 지하 62,3,4,우리넷,normal,45,20년1월,2024.09.30 08:57:58,1061,SKT1,8530e1dbfffffff,153,초과밀,5,교체검토,-,,,
527,SKM,01227728357,GPG02,35.1873,126.9081,45.05,광주 북구 서하로 253,1,2,우리넷,normal,0,20년1월,2024.09.30 08:57:58,483,SKT2,8530c6affffffff,54,초과밀,8,교체불필요,-,,,
528,SKM,01227728358,SSB01,37.5935,127.0017,48.1,서울 성북구 성북로 66,4,5,우리넷,normal,0,20년1월,2024.09.30 08:57:58,624,SKT1,8530e1c3fffffff,112,초과밀,7,교체불필요,-,,,
529,SKM,01227728360,GSG02,35.1135,126.8526,40.59,광주 서구 회재유통길 62,2,2,우리넷,normal,45,20년1월,2024.09.30 08:57:58,549,SKT2,8530c633fffffff,30,과밀,9,교체불필요,-,,,
530,SKM,01227728394,SDD04,37.5792,127.074,12.71,서울 동대문구 사가정로 262,3,7,우리넷,normal,45,20년1월,2024.09.30 08:57:58,967,SKT1,8530e1c3fffffff,112,초과밀,7,교체불필요,-,,,
531,SKM,01227728961,JAS01,35.306,126.7816,46.78,전남 장성군 장성읍 기산리 477-15,2,2,우리넷,normal,0,20년1월,2024.09.30 08:57:58,558,SKT2,8530c6a3fffffff,7,양호,7,교체불필요,-,,,
532,SKM,01227729172,JID03,34.4856,126.2791,28.77,전남 진도군 진도읍 정거름재길 11,2,2,우리넷,normal,0,20년1월,2024.09.30 08:57:58,953,SKT2,8530d5b3fffffff,8,양호,9,교체불필요,-,,,
533,SKM,01227729186,SMP05,37.5445,126.9514,13.95,서울 마포구 공덕동 237-9,2,3,우리넷,normal,0,20년1월,2024.09.30 08:57:58,956,SKT1,8530e1dbfffffff,153,초과밀,8,교체불필요,-,,,
534,SKM,01227729214,EJB01,37.737,127.085,54,경기 의정부시 용민로21번길 86,1,3,우리넷,normal,45,20년1월,2024.09.30 08:57:58,1507,SKT1,8530e1d7fffffff,28,과밀,2,교체시급,-,,,
535,SKM,01227729425,JJJ06,33.5487,126.7514,24.78,제주 제주시 구좌읍 김녕리 1886,2,2,우리넷,normal,0,20년1월,2024.09.30 08:57:58,1239,SKT1,8530d11bfffffff,10,양호,7,교체불필요,-,,,
536,FSM,01227729456,CNY0H,35.3949,128.4809,9.81,경남 창녕군 남지읍 동포로 64,2,2,우리넷,normal,45,21년8월,2024.09.30 08:57:58,6483,소방청,8530c1cffffffff,9,양호,9,교체불필요,-,,,
537,SKM,01227729488,YUS03,34.7347,127.7255,2.95,전남 여수시 대교로 42-1,2,2,우리넷,normal,45,20년1월,2024.09.30 08:57:58,401,SKT2,8530c2a7fffffff,29,과밀,8,교체불필요,-,,,
538,FSM,01227729529,CHJ3Q,36.621,127.4949,51.44,충북 청주시 상당구 영운로 61,1,3,우리넷,normal,45,21년8월,2024.09.30 08:57:58,7202,소방청,8530e30ffffffff,32,과밀,10,교체불필요,-,,,
539,SKM,01227729586,KWY03,34.9799,127.5827,18.2,전남 광양시 광양읍 인덕로 1090,2,3,우리넷,disc.,45,20년1월,2021.12.27 16:38:27,607,SKT2,-,,,,,-,,,
540,SKM,01227729624,GGG0B,35.2168,126.8495,24.3,광주 광산구 임방울대로826번길 19-13,2,2,우리넷,normal,45,20년1월,2024.09.30 08:57:58,445,SKT2,8530c6affffffff,54,초과밀,8,교체불필요,-,,,
541,SKM,01227729653,GNG02,35.1357,126.8949,41.17,광주 남구 군분로 21,4,4,우리넷,normal,0,20년1월,2024.09.30 08:57:58,1204,SKT1,8530c633fffffff,30,과밀,10,교체불필요,-,,,
542,KSM,01227729666,JAHBH,34.6888,126.9195,47,전남 장흥읍 축내리 271-11,1,1,우리넷,disc.,0,24년7월,2024.08.07 18:34:53,7833,기상청관측소,-,,,,,-,,,
543,FSM,01227729677,NAJB7,34.9406,126.6109,18.05,전남 나주시 공산면 공산로 95-11,1,1,우리넷,normal,45,21년8월,2024.09.30 08:57:59,7070,소방청,8530c60ffffffff,7,양호,8,교체불필요,-,,,
544,SKM,01227729678,GSG04,35.1566,126.868,39.06,광주 서구 내방로252번길 14,1,2,우리넷,normal,45,20년1월,2024.09.30 08:57:59,1157,SKT2,8530c633fffffff,30,과밀,8,교체불필요,-,,,
545,SKM,01227729687,YOD05,36.2162,127.8944,225.81,충북 영동군 황간면 노근리 13-6,1,1,우리넷,normal,0,20년1월,2024.09.30 08:57:58,605,SKT1,8530c58bfffffff,3,부족,10,교체불필요,-,,,
546,FSM,01227729691,YUS1F,34.7599,127.6651,4.3,전남 여수시 망마로 20,1,3,우리넷,normal,0,21년8월,2024.09.30 08:57:58,6484,소방청,8530c2a7fffffff,29,과밀,10,교체불필요,-,,,
547,SKM,01227729699,DPG0B,35.9418,128.563,39.81,대구 북구 학정로 415,1,10,우리넷,normal,45,20년5월,2024.09.30 08:57:58,2842,대리점,8530c193fffffff,81,초과밀,8,교체불필요,-,,,
548,SKM,01227729717,CHJ0F,36.4768,127.4288,80.92,충북 청주시 서원구 현도면 달계길 23-18,1,1,우리넷,normal,0,20년1월,2024.09.30 08:57:58,2005,SKT1,8530e373fffffff,12,양호,8,교체불필요,-,,,
549,SKM,01227729734,JEC0J,37.1879,128.2977,438.3,충북 제천시 송학면 시곡리 산 13-1,1,1,우리넷,normal,0,20년1월,2024.09.30 08:57:58,2202,SKT1,8530ee17fffffff,3,부족,8,교체불필요,-,,,
550,SKM,01227729736,GGG06,35.1906,126.8149,27.18,광주 광산구 장신로 44,6,7,우리넷,normal,0,20년1월,2024.09.30 08:57:58,399,SKT1,8530c6affffffff,54,초과밀,7,교체불필요,-,,,
551,FSM,01227739998,NAJB5,35.0278,126.7099,39.33,전남 나주시 예향로 4201,1,5,우리넷,normal,45,21년8월,2024.09.30 08:57:58,6804,소방청,8530c607fffffff,10,양호,10,교체불필요,-,,,
552,FSM,01231300003,GOS32,35.11,128.2381,52.36,경남 고성군 영오면 문산로 14-10,1,2,우리넷,normal,45,21년8월,2024.09.30 08:57:59,5328,소방청,8530c02ffffffff,8,양호,,,-,,,
553,SKM,01231300004,SYD0G,37.5362,126.8951,8.66,서울 영등포구 선유로49길 23,9,15,우리넷,normal,45,20년1월,2024.09.30 08:57:58,1219,SKT1,8530e1dbfffffff,153,초과밀,10,교체불필요,-,,,
554,SKM,01231300006,HAM01,35.0586,126.5181,16.38,전남 함평군 함평읍 함장로 1125,1,1,우리넷,normal,0,20년1월,2024.09.30 08:57:58,354,SKT2,8530c603fffffff,9,양호,10,교체불필요,-,,,
555,SKM,01231300007,JEC02,37.182,128.1961,397.08,충북 제천시 세명로 65,6,6,우리넷,normal,0,20년1월,2024.09.30 08:57:58,397,SKT1,8530ee8ffffffff,10,양호,9,교체불필요,-,,,
556,SKM,01231300009,KAN03,34.645,126.7872,16.3,전남 강진군 군동면 군동계산길 9,2,2,우리넷,normal,0,20년1월,2024.09.30 08:57:58,1456,SKT2,8530c66ffffffff,7,양호,2,교체시급,-,,,
557,SKM,01231300010,SSD0E,37.5461,127.0629,11.81,서울 성동구 광나루로6길 36,1,8,우리넷,normal,0,20년4월,2024.09.30 08:57:42,2526,SKT3,-,,,,,-,,,
558,SKM,01231300012,GPG06,35.1592,126.9009,45.21,광주 북구 금남로 41,5,10,우리넷,normal,0,20년1월,2024.09.30 08:57:58,1384,SKT2,8530c6affffffff,54,초과밀,7,교체불필요,-,,,
559,SKM,01231300014,DAJ02,36.8897,126.6388,34.29,충남 당진시 무수동2길 25-6,1,2,우리넷,normal,0,20년1월,2024.09.30 08:57:58,478,SKT2,8530e06bfffffff,12,양호,9,교체불필요,-,,,
560,SKM,01231300015,KUR04,35.3172,127.4596,164.15,전남 구례군 산동면 하관1길 26,1,3,우리넷,normal,0,20년1월,2024.09.30 08:57:59,850,SKT1,8530c0c7fffffff,5,부족,10,교체불필요,-,,,
561,SKM,01231300016,PTK02,36.9612,126.8557,17.72,경기 평택시 포승읍 서동대로 792,3,5,우리넷,normal,0,20년1월,2024.09.30 08:57:58,1000,SKT1,8530e067fffffff,8,양호,,,-,,,
562,SKM,01231300017,DAJ04,36.9594,126.6988,11.76,충남 당진시 송산면 머구나무길 21,2,2,우리넷,normal,45,20년1월,2024.09.30 08:57:58,492,SKT2,8530e063fffffff,5,부족,10,교체불필요,-,,,
563,SKM,01231300018,GSG01,35.1566,126.868,39.06,광주 서구 내방로252번길 14,2,2,우리넷,normal,45,20년1월,2024.09.30 08:57:58,363,SKT2,8530c633fffffff,30,과밀,7,교체불필요,-,,,
564,SKM,01231300019,JEC0B,36.9965,128.1646,208.1,충북 제천시 청풍면 청풍호로 2186,1,1,우리넷,normal,0,20년1월,2024.09.30 08:57:58,2090,SKT1,8530ee1bfffffff,5,부족,4,교체권장,-,,,
565,SKM,01231300021,JAS04,35.4053,126.8844,99.32,전남 장성군 북하면 담장로 1425-27,1,1,우리넷,normal,0,20년1월,2024.09.30 08:57:58,1364,SKT1,8530c6b7fffffff,4,부족,10,교체불필요,-,,,
566,SKM,01231300022,JSP03,33.2635,126.6167,44.19,제주 서귀포시 효돈로 166,1,4,우리넷,normal,0,20년1월,2024.09.30 08:57:58,411,SKT1,8530d143fffffff,18,양호,10,교체불필요,-,,,
567,SKM,01231300023,SJG2O,37.5665,126.985,25.25,서울 중구 을지로 65,28,40,우리넷,disc.,0,20년4월,2022.05.23 15:46:31,2649,SKT3,-,,,,,-,,,
568,SKM,01231300024,DAM01,35.3176,126.9832,50,전남 담양군 담양읍 중앙로 50,2,5,우리넷,normal,0,20년1월,2024.09.30 08:57:58,715,SKT1,8530c6a7fffffff,7,양호,10,교체불필요,-,,,
569,SKM,01231300025,ASS04,37.0081,127.263,26.99,경기 안성시 아양로 15,1,2,우리넷,normal,0,20년1월,2024.09.30 08:57:58,1169,SKT1,8530e387fffffff,8,양호,9,교체불필요,-,,,
570,FSM,01231300026,GOS33,35.0588,128.3666,8.38,경남 고성군 회화면 영회로 2211,1,2,우리넷,disc.,45,21년8월,2023.11.30 11:44:44,5329,소방청,-,,,,,-,,,
571,SKM,01231300027,YUS0A,34.7393,127.7438,30.7,전남 여수시 고소7길 16,1,2,우리넷,normal,0,20년1월,2024.09.30 08:57:58,649,SKT1,8530c2a7fffffff,29,과밀,7,교체불필요,-,,,
572,SKM,01231300028,YKW02,35.258,126.5057,30.71,전남 영광군 영광읍 함영로 3444,2,2,우리넷,normal,0,20년1월,2024.09.30 08:57:58,365,SKT2,8530c68ffffffff,9,양호,7,교체불필요,-,,,
573,SKM,01231300029,KWY05,34.9407,127.685,33.77,전남 광양시 중마용소길 36,1,2,우리넷,normal,0,20년1월,2024.09.30 08:57:59,1184,SKT2,8530c07bfffffff,17,양호,9,교체불필요,2,통품 불안정,,
574,SKM,01231300030,SUN0E,34.9551,127.5186,10.2,전남 순천시 봉화2길 14,3,6,우리넷,normal,45,20년1월,2024.09.30 08:57:58,2287,SKT1,8530c04ffffffff,23,과밀,,,-,,,
575,SKM,01231300031,SSB03,37.5885,127.0177,26.12,서울 성북구 보문로 152,4,8,우리넷,normal,0,20년1월,2024.09.30 08:57:58,661,SKT1,8530e1c3fffffff,112,초과밀,10,교체불필요,-,,,
576,SKM,01231300034,JAS02,35.306,126.7816,46.78,전남 장성군 장성읍 기산리 477-15,1,2,우리넷,normal,0,20년1월,2024.09.30 08:57:58,565,SKT2,8530c6a3fffffff,7,양호,10,교체불필요,-,,,
577,SKM,01231300044,SDD05,37.5726,127.0566,14.56,서울 동대문구 답십리로 150,3,5,우리넷,normal,0,20년1월,2024.09.30 08:57:59,998,SKT1,8530e1c3fffffff,112,초과밀,1,교체필수,-,,,
578,SKM,01231300045,GGG0F,35.2117,126.8417,31.07,광주 광산구 월계로140번길 35-18,2,5,우리넷,normal,0,20년1월,2024.09.30 08:57:58,2289,SKT1,8530c6affffffff,54,초과밀,7,교체불필요,-,,,
579,FSM,01231300046,SUN0V,35.0195,127.3729,134.99,전남 순천시 승주읍 승평길 19-17,1,2,우리넷,normal,45,21년8월,2024.09.30 08:57:59,5249,소방청,8530c043fffffff,4,부족,9,교체불필요,-,,,
580,SKM,01231300047,MUA01,34.9878,126.4718,17.09,전남 무안군 무안읍 창포로 33-7,2,2,우리넷,normal,45,20년1월,2024.09.30 08:57:58,833,SKT2,8530c603fffffff,9,양호,10,교체불필요,-,,,
581,SKM,01231300049,SUS01,36.7774,126.4945,23.84,충남 서산시 수석1길 138-14,1,2,우리넷,normal,45,20년1월,2024.09.30 08:57:58,450,SKT2,8530e2b7fffffff,13,양호,8,교체불필요,-,,,
582,SKM,01231300050,GOY01,37.6153,126.8345,12.47,경기 고양시 덕양구 충경로 44,3,8,우리넷,normal,0,20년1월,2024.09.30 08:57:58,811,SKT1,8530e0a7fffffff,49,과밀,10,교체불필요,-,,,
583,SKM,01231300052,GGG08,35.2085,126.8094,27.89,광주 광산구 하남산단8번로 128,3,4,우리넷,normal,0,20년1월,2024.09.30 08:57:58,417,SKT1,8530c6affffffff,54,초과밀,7,교체불필요,-,,,
584,SKM,01231300053,SJG1K,37.5665,126.9851,25.21,서울 중구 을지로 65,31,40,우리넷,normal,0,20년4월,2024.09.30 08:57:58,2603,SKT3,-,,,,,-,,,
585,SKM,01231300054,GOK01,35.2811,127.2875,67.98,전남 곡성군 곡성읍 학교로 56,2,2,우리넷,normal,0,20년1월,2024.09.30 08:57:58,826,SKT2,8530c0c3fffffff,7,양호,10,교체불필요,-,,,
586,SKM,01231300055,SEP03,37.619,126.9212,25.09,서울 은평구 불광동 487-2,1,5,우리넷,normal,0,20년1월,2024.09.30 08:57:58,695,SKT1,8530e1dbfffffff,153,초과밀,10,교체불필요,-,,,
587,SKM,01231300059,SEP04,37.5843,126.9094,13.38,서울 은평구 증산로 303,1,9,우리넷,disc.,0,20년1월,2023.12.04 11:56:32,798,SKT2,-,,,,,-,,,
588,SKM,01231300061,GGG01,35.1141,126.7805,14.83,광주 광산구 동곡로 356,2,2,우리넷,normal,0,20년1월,2024.09.30 08:57:58,320,SKT1,8530c633fffffff,30,과밀,,,-,,,
589,SKM,01231300062,SJG0I,37.5572,126.9726,26.8,서울 중구 세종대로 16-2,1,2,우리넷,disc.,45,20년1월,2022.11.26 20:03:31,1425,SKT1,-,,,,,-,,,
590,SKM,01231300065,YUS09,34.7552,127.7257,18.68,전남 여수시 좌수영로 172,2,3,우리넷,normal,45,20년1월,2024.09.30 08:57:58,645,SKT1,8530c2a7fffffff,29,과밀,10,교체불필요,-,,,
591,SKM,01231300066,BOS01,34.8299,127.3591,72.08,전남 보성군 벌교읍 영등리 1331-2,1,1,우리넷,normal,0,20년1월,2024.09.30 08:57:58,485,SKT1,8530c04bfffffff,6,양호,10,교체불필요,-,,,
592,SKM,01231300067,JSP02,33.2655,126.5679,96.38,제주 서귀포시 동홍동 1137-12,1,4,우리넷,disc.,0,20년1월,2024.09.03 13:25:38,410,SKT1,-,,,,,-,,,
593,SKM,01231300070,SJL0A,37.6106,127.0773,16.28,서울 중랑구 동일로 897,4,9,우리넷,disc.,0,20년1월,2024.02.16 15:01:50,643,SKT1,-,,,,,-,,,
594,SKM,01231300071,YOD01,36.1982,127.7563,111.83,충북 영동군 영동읍 오탄리 727-1,2,2,우리넷,normal,0,20년1월,2024.09.30 08:57:58,421,SKT2,8530c5c7fffffff,6,양호,6,관찰필요,-,,,
595,FSM,01231300072,NAJBB,34.938,126.5603,20,전남 나주시 동강면 인동길 25-36,1,1,우리넷,normal,0,22년 하반기 이후,2024.09.30 08:57:59,7675,소방청,8530c60ffffffff,7,양호,,,-,,,
596,SKM,01231300074,GNG05,35.1276,126.9078,58.78,광주 남구 봉선1로 24,2,3,우리넷,normal,45,20년1월,2024.09.30 08:57:59,1272,SKT2,8530c633fffffff,30,과밀,10,교체불필요,-,,,
597,SKM,01231300077,SUN07,34.9448,127.535,13.47,전남 순천시 해룡면 삼동길 2-14,1,2,우리넷,normal,45,20년1월,2024.09.30 08:57:58,619,SKT2,8530c04ffffffff,23,과밀,10,교체불필요,-,,,
598,SKM,01231300078,OSA06,37.1611,127.0336,56.11,경기 오산시 가장로 490,4,5,우리넷,normal,45,20년1월,2024.09.30 08:57:59,1054,SKT1,8530e02ffffffff,46,과밀,9,교체불필요,-,,,
599,SKM,01231300083,GGG07,35.1904,126.8243,20.29,광주 광산구 임방울대로 342,7,9,우리넷,normal,0,20년1월,2024.09.30 08:57:58,412,SKT1,8530c6affffffff,54,초과밀,7,교체불필요,-,,,
600,SKM,01231300084,SUN06,34.9448,127.535,13.47,전남 순천시 해룡면 삼동길 2-14,2,2,우리넷,normal,45,20년1월,2024.09.30 08:57:59,610,SKT2,8530c04ffffffff,23,과밀,9,교체불필요,-,,,
601,SKM,01231300087,KWY04,34.9407,127.685,33.77,전남 광양시 중마용소길 36,2,2,우리넷,normal,0,20년1월,2024.09.30 08:57:58,616,SKT2,8530c07bfffffff,17,양호,,,-,,,
602,SKM,01231300088,SJL06,37.5986,127.1001,25.38,서울 중랑구 용마산로 533,7,8,우리넷,normal,0,20년1월,2024.09.30 08:57:58,1090,SKT1,8530e1c3fffffff,112,초과밀,10,교체불필요,-,,,
603,SKM,01231300089,KOI03,36.8884,127.8169,112.24,충북 괴산군 불정면 앵천리 151-5,1,1,우리넷,normal,0,20년1월,2024.09.30 08:57:58,2082,SKT1,8530eedbfffffff,1,부족,7,교체불필요,-,,,
604,SKM,01231300090,SJL05,37.5886,127.0797,12.36,서울 중랑구 동일로 651,4,6,우리넷,disc.,0,20년1월,2024.03.18 10:23:14,1089,SKT1,-,,,,,-,,,
605,SKM,01231300091,SJL07,37.6064,127.0947,35.29,서울 중랑구 봉화산로 194,8,10,우리넷,normal,45,20년1월,2024.09.30 08:57:58,1092,SKT1,8530e1c3fffffff,112,초과밀,7,교체불필요,-,,,
606,SKM,01231300092,CHU02,36.9631,127.8711,75.41,충북 충주시 대소원면 대학로 4,4,6,우리넷,normal,0,20년1월,2024.09.30 08:57:58,324,SKT1,8530eec3fffffff,10,양호,9,교체불필요,-,,,
607,SKM,01231300094,YAM02,34.81,126.7615,483.01,전남 영암군 금정면 활성산길 219-1,1,1,우리넷,normal,0,20년1월,2024.09.30 08:57:58,1036,SKT1,8530c677fffffff,5,부족,8,교체불필요,-,,,
608,SKM,01231300096,GNG03,35.1368,126.92,54.31,광주 남구 대남대로 39,4,6,우리넷,normal,0,20년1월,2024.09.30 08:57:58,1217,SKT1,8530c637fffffff,17,양호,9,교체불필요,-,,,
609,SKM,01231300099,HAM02,35.1053,126.4925,65.52,전남 함평군 대동면 함영로 1584-23,1,1,우리넷,normal,0,20년1월,2024.09.30 08:57:58,1228,SKT1,8530c617fffffff,5,부족,10,교체불필요,-,,,
610,SKM,01231300103,ASA03,36.8086,127.0793,40.5,충남 아산시 탕정면 선문로 379-2,3,3,우리넷,normal,45,20년1월,2024.09.30 08:57:58,725,SKT2,8530e38bfffffff,22,과밀,8,교체불필요,-,,,
611,SKM,01231300104,HON02,36.659,126.6876,25.73,충남 홍성군 홍북읍 홍예로 362-1,2,2,우리넷,normal,0,20년1월,2024.09.30 08:57:59,479,SKT2,8530e3dbfffffff,6,양호,9,교체불필요,-,,,
612,SKM,01231300105,NAJ02,34.9383,126.7124,37.99,전남 나주시 세지면 죽동리 227-11,1,1,우리넷,normal,0,20년1월,2024.09.30 08:57:58,435,SKT1,8530c63bfffffff,7,양호,9,교체불필요,-,,,
613,SKM,01231300108,GUM0K,36.1485,128.3108,54.68,경북 구미시 봉곡남로 76,1,9,우리넷,disc.,45,20년5월,0,2988,대리점,-,,,,,-,,,
614,SKM,01231300113,HON01,36.659,126.6876,25.73,충남 홍성군 홍북읍 홍예로 362-1,1,2,우리넷,normal,0,20년1월,2024.09.30 08:57:58,474,SKT2,8530e3dbfffffff,6,양호,9,교체불필요,-,,,
615,SKM,01231300114,ASA04,36.8086,127.0793,40.5,충남 아산시 탕정면 선문로 379-2,2,3,우리넷,disc.,45,20년1월,2023.10.16 13:07:24,754,SKT2,-,,,,,-,,,
616,FSM,01231300116,SUN11,34.936,127.5505,10.2,전남 순천시 해룡면 매안로 142,1,2,우리넷,normal,45,21년8월,2024.09.30 08:57:58,5332,소방청,8530c04ffffffff,23,과밀,10,교체불필요,-,,,
617,SKM,01231300120,EUM01,36.9366,127.6919,153.24,충북 음성군 음성읍 시장로 103,2,3,우리넷,normal,0,20년1월,2024.09.30 08:57:58,330,SKT1,8530e3affffffff,6,양호,8,교체불필요,-,,,
618,SKM,01231300121,CHN02,36.8402,127.1294,60.35,충남 천안시 서북구 성성8로 2-36,5,6,우리넷,normal,0,20년1월,2024.09.30 08:57:58,473,SKT2,8530e38bfffffff,22,과밀,10,교체불필요,-,,,
619,FSM,01231300123,CNY0D,35.4593,128.5205,47.39,경남 창녕군 영산면 영산장마로 697,1,3,우리넷,normal,45,21년8월,2024.09.30 08:57:58,5333,소방청,8530c1cffffffff,9,양호,10,교체불필요,-,,,
620,SKM,01231300125,SKD02,37.5358,127.1326,24.31,서울 강동구 천호대로 1073-1,2,3,우리넷,normal,45,20년1월,2024.09.30 08:57:58,1074,SKT1,8530e1cffffffff,43,과밀,7,교체불필요,-,,,
621,SKM,01231300129,CHU04,36.9895,127.9281,94.73,충북 충주시 으뜸로 40,4,5,우리넷,normal,0,20년1월,2024.09.30 08:57:58,331,SKT1,8530eec3fffffff,10,양호,10,교체불필요,-,,,
622,FSM,01231300132,SUN13,34.9481,127.4866,14.31,전남 순천시 중앙로 19,1,4,우리넷,normal,45,21년8월,2024.09.30 08:57:58,5336,소방청,8530c04ffffffff,23,과밀,2,교체시급,-,,,
623,SKM,01231300134,SDD09,37.5868,127.0379,16.35,서울 동대문구 고산자로 529,3,4,우리넷,normal,0,20년1월,2024.09.30 08:57:58,1134,SKT2,8530e1c3fffffff,112,초과밀,,,-,,,
624,SKM,01231300137,NAJ01,34.9209,126.7477,32.36,전남 나주시 세지면 동창로 141,1,4,우리넷,disc.,0,20년1월,2023.03.20 17:45:11,427,SKT1,-,,,,,-,,,
625,SKM,01231300139,SSB04,37.5863,127.0292,31.87,서울 성북구 고려대로 지하 89,2,3,우리넷,normal,0,20년1월,2024.09.30 08:57:58,1380,SKT1,8530e1c3fffffff,112,초과밀,9,교체불필요,-,,,
626,SKM,01231300140,HAM03,35.0259,126.5683,131.39,전남 함평군 학교면 죽정리 157-4,1,1,우리넷,normal,0,20년1월,2024.09.30 08:57:58,1244,SKT1,8530c603fffffff,9,양호,10,교체불필요,-,,,
627,SKM,01231300141,KOH01,34.6226,127.2877,259.7,전남 고흥군 고흥읍 옥하리 산 1-14,1,1,우리넷,normal,0,20년1월,2024.09.30 08:57:58,497,SKT1,8530c28ffffffff,9,양호,9,교체불필요,-,,,
628,SKM,01231300142,JEC0M,37.1823,128.1196,533.82,충북 제천시 봉양읍 명암로3길 91-2,1,1,우리넷,disc.,0,20년1월,2024.03.14 18:39:09,2225,SKT1,-,,,,,-,,,
629,SKM,01231300144,ASA02,36.7846,127.0059,34.11,충남 아산시 충무로40번길 5,3,3,우리넷,normal,0,20년1월,2024.09.30 08:57:58,409,SKT2,8530e3c7fffffff,11,양호,9,교체불필요,-,,,
630,SKM,01231300145,JEC0G,37.1283,128.121,281.95,충북 제천시 봉양읍 앞산로 40-52,1,1,우리넷,normal,0,20년1월,2024.09.30 08:57:58,2197,SKT1,8530ee13fffffff,19,양호,7,교체불필요,-,,,
631,SKM,01231300147,SJG1J,37.5665,126.9851,25.21,서울 중구 을지로 65,32,40,우리넷,normal,0,20년4월,2024.09.30 08:57:58,2602,SKT3,-,,,,,-,,,
632,SKM,01231300148,EUM07,36.9977,127.6527,239.93,충북 음성군 생극면 오생리 산 41,1,1,우리넷,normal,0,20년1월,2024.09.30 08:57:59,2218,SKT1,8530e3a7fffffff,2,부족,9,교체불필요,-,,,
633,SKM,01231300149,OKC03,36.3672,127.7363,223.16,충북 옥천군 청성면 남부로 3114-22,1,1,우리넷,normal,0,20년1월,2024.09.30 08:57:55,612,SKT1,8530c59bfffffff,4,부족,10,교체불필요,-,,,
634,SKM,01231300153,SJM01,36.7069,127.1472,47.59,세종 소정면 운당1길 10,1,1,우리넷,normal,0,20년1월,2024.09.30 08:57:58,495,SKT1,8530e31bfffffff,10,양호,10,교체불필요,-,,,
635,SKM,01231300155,CHY01,36.4371,126.7978,94.02,충남 청양군 청양읍 충절로 1030-28,1,2,우리넷,normal,0,20년1월,2024.09.30 08:57:58,457,SKT2,8530e227fffffff,7,양호,9,교체불필요,-,,,
636,SKM,01231300157,DSG0D,35.8844,128.5812,30.36,대구 서구 원대로 73,3,6,우리넷,normal,0,20년4월,2024.09.30 08:57:58,2326,SKT3,-,,,,,-,,,
637,FSM,01231300158,YUS1H,34.831,127.6145,2.95,전남 여수시 소라면 여순로 297,1,1,우리넷,normal,45,21년8월,2024.09.30 08:57:59,6670,소방청,8530c2b7fffffff,3,부족,8,교체불필요,-,,,
638,SKM,01231300161,POH0M,36.082,129.3972,8.56,경북 포항시 북구 천마로 60,1,6,우리넷,disc.,45,20년5월,2021.02.26 20:37:46,2841,대리점,-,,,,,-,,,
639,SKM,01231300162,SJG1V,37.5665,126.9851,25.21,서울 중구 을지로 65,20,40,우리넷,normal,0,20년4월,2024.09.30 08:57:59,2614,SKT3,-,,,,,-,,,
640,SKM,01231300165,CHJ08,36.6112,127.3268,31,충북 청주시 흥덕구 오송읍 오송2길 5,1,1,우리넷,normal,45,20년1월,2024.09.30 08:57:58,940,SKT2,8530e30bfffffff,13,양호,9,교체불필요,-,,,
641,SKM,01231300170,JEC0C,37.155,128.1551,277.96,충북 제천시 왕암동 1107,1,1,우리넷,normal,0,20년1월,2024.09.30 08:57:58,2125,SKT1,8530ee13fffffff,19,양호,4,교체권장,-,,,
642,FSM,01231300171,JINAU,36.8993,127.5107,68,충북 진천군 덕산읍 초금로 606-1,1,2,우리넷,normal,45,21년8월,2024.09.30 08:57:58,5338,소방청,8530e3abfffffff,6,양호,10,교체불필요,-,,,
643,FSM,01231300172,NAJB2,35.0753,126.7311,14.33,전남 나주시 노안면 금산로 9,1,1,우리넷,normal,45,21년8월,2024.09.30 08:57:58,6485,소방청,8530c607fffffff,10,양호,10,교체불필요,-,,,
644,SKM,01231300173,BOE02,36.4788,127.7045,164.15,충북 보은군 수한면 안내보은로 1273-7,2,2,우리넷,disc.,45,20년1월,2024.06.19 02:05:51,626,SKT2,-,,,,,-,,,
645,FSM,01231300175,NAJBA,35.0237,126.624,20,전남 나주시 문평면 다시로 28,1,1,우리넷,normal,0,22년 하반기 이후,2024.09.30 08:57:58,7674,소방청,8530c607fffffff,10,양호,,,1,통품 불량,,
646,FSM,01231300176,EURBV,35.3196,128.2483,21.63,경남 의령군 의령읍 의병로 108-17,1,3,우리넷,normal,45,21년8월,2024.09.30 08:57:58,6782,소방청,8530c027fffffff,13,양호,9,교체불필요,-,,,
647,SKM,01231300177,DAJ01,36.8856,126.7338,30.04,충남 당진시 송악읍 봉교리 336-28,2,2,우리넷,normal,0,20년1월,2024.09.30 08:57:58,471,SKT2,8530e06ffffffff,4,부족,8,교체불필요,-,,,
648,SKM,01231300178,SJG1U,37.5665,126.9851,25.21,서울 중구 을지로 65,21,40,우리넷,disc.,0,20년4월,2024.08.31 14:47:07,2613,SKT3,-,,,,,-,,,
649,SKM,01231300180,SKW03,37.4765,126.9814,20.01,서울 관악구 남현동 1130-1,2,2,우리넷,normal,45,20년1월,2024.09.30 08:57:58,685,SKT1,8530e1cbfffffff,70,초과밀,4,교체권장,-,,,
650,SKM,01231300181,JEC0E,36.9245,128.1197,252.29,충북 제천시 덕산면 월악로9길 32,1,1,우리넷,normal,0,20년1월,2024.09.30 08:57:58,2162,SKT1,8530eecffffffff,2,부족,7,교체불필요,-,,,
651,SKM,01231300182,JEC0A,37.0773,128.2045,171.18,충북 제천시 금성면 양화리 291-2,1,1,우리넷,disc.,0,20년1월,2024.05.28 11:12:50,2001,SKT1,-,,,,,-,,,
652,SKM,01231300183,NAJ04,35.0156,126.712,33.59,전남 나주시 시청길 19,4,5,우리넷,normal,0,20년1월,2024.09.30 08:57:58,1176,SKT1,8530c607fffffff,10,양호,10,교체불필요,-,,,
653,SKM,01231300184,SJG1H,37.5665,126.9851,45.21,서울 중구 을지로 65,-6,40,우리넷,normal,0,20년4월,2024.09.30 08:57:57,2589,SKT3,-,,,,,-,,,
654,SKM,01231300185,SDB01,37.6856,127.0457,33.15,서울 도봉구 도봉로 909,3,5,우리넷,normal,0,20년1월,2024.09.30 08:57:58,599,SKT1,8530e1d7fffffff,28,과밀,9,교체불필요,-,,,
655,SKM,01231300186,SJG1Y,37.5665,126.9851,25.21,서울 중구 을지로 65,17,40,우리넷,normal,0,20년4월,2024.09.30 08:57:58,2617,SKT3,-,,,,,-,,,
656,FSM,01231300187,CHJ3R,36.621,127.4949,51.44,충북 청주시 상당구 영운로 61,1,3,우리넷,normal,0,21년8월,2024.09.30 08:57:58,7203,소방청,8530e30ffffffff,32,과밀,10,교체불필요,-,,,
657,SKM,01231300189,GGG05,35.1966,126.8382,43.15,광주 광산구 신창로 127,6,8,우리넷,normal,45,20년1월,2024.09.30 08:57:58,389,SKT1,8530c6affffffff,54,초과밀,7,교체불필요,-,,,
658,FSM,01231300192,CNY0E,35.4377,128.5886,41.84,경남 창녕군 부곡면 원앙로 184,1,2,우리넷,normal,45,21년8월,2024.09.30 08:57:58,5339,소방청,8530c1cffffffff,9,양호,10,교체불필요,-,,,
659,FSM,01231300193,SIN0L,35.0862,126.1119,9.54,전남 신안군 임자면 진리길 11-13,1,1,우리넷,normal,0,21년8월,2024.09.30 08:57:58,7279,소방청,8530c6c3fffffff,1,부족,10,교체불필요,-,,,
660,SKM,01231300195,JIN06,36.7904,127.5083,62,충북 진천군 초평면 은암리 474-2,1,1,우리넷,normal,0,20년1월,2024.09.30 08:57:58,2271,SKT1,8530e3abfffffff,6,양호,4,교체권장,-,,,
661,SKM,01231300196,BUC04,37.5199,126.7816,12.58,경기 부천시 오정구 삼작로 182,1,3,우리넷,normal,0,20년1월,2024.09.30 08:57:58,1165,SKT2,8530e0affffffff,83,초과밀,10,교체불필요,-,,,
662,SKM,01231300197,EUM09,36.9324,127.5925,257.47,충북 음성군 음성읍 동음리 산 127-24,1,1,우리넷,normal,0,20년1월,2024.09.30 08:57:58,2290,SKT1,8530e3affffffff,6,양호,10,교체불필요,-,,,
